,name,address,cuisine,lat,lon,image_url,rating,coordinates,square_i,square_j
0,,[TEST] - A-One,"[""Kids Friendly"", ""Comfort Foods""]",1.266722218,103.6909192,https://d1sag4ddilekf6.cloudfront.net/compressed/merchants/4-CZDJJTWFC8BAAN/hero/ed23415108cf443cbef236240022b33c_1609316584543864459.jpeg,,"[1.266722218, 103.6909192]",1,2
1,,[Test] Fish & Co.,"[""Fish & Chips""]",1.267965,103.693351,https://d1sag4ddilekf6.cloudfront.net/compressed/merchants/4-C2T2GYAJBEVFJN/hero/b02243bc1d9a41dab4e36acac5e38582_1621835390039050970.jpeg,,"[1.267965, 103.693351]",1,2
2,Asahi Seafood,[TEST] - Diana's Food Store (Team Testing),"[""Local"", ""Salad"", ""Soup""]",1.26802,103.69486,https://d1sag4ddilekf6.cloudfront.net/compressed/merchants/4-CYTECY3VNNC3JJ/hero/a974ac9d74d441aabb45a9cd1999a61f_1620269339226708444.jpg,,"[1.26802, 103.69486]",1,2
3,,[Test] Shake Shack,"[""Burger"", ""Fast Food"", ""Western""]",1.266722218,103.6909192,https://d1sag4ddilekf6.cloudfront.net/compressed/merchants/4-CZLVCKMHNYTXNX/hero/fb13b30f07f44b1d89e621388eb3980f_1608176571645945916.jpeg,,"[1.266722218, 103.6909192]",1,2
4,,[Test] The Coffee Bean & Tea Leaf - KK Hospital,"[""Coffee & Tea""]",1.266722218,103.6909192,https://d1sag4ddilekf6.cloudfront.net/compressed/merchants/4-CZKKR7K2JJ22NT/hero/2fed0425240a41fa8f190234f9d6206a_1620704615302955402.jpeg,,"[1.266722218, 103.6909192]",1,2
5,,CBTL Test Store - Classic,"[""Singaporean"", ""Kids Friendly""]",1.267965,103.693351,https://d1sag4ddilekf6.cloudfront.net/compressed/merchants/4-CYNANF42AEVAVA/hero/a4de9be766714496935a972417d44f85_1596008385365821067.jpeg,,"[1.267965, 103.693351]",1,2
6,Food Village,[BD] [TEST] Kimly Seafood,"[""Singaporean""]",1.266722218,103.6909192,https://d1sag4ddilekf6.cloudfront.net/compressed/merchants/4-CYVBC2NTTGNUNN/hero/f87e70f43e2848dd8a34e1b7ab2a5f54_1609316062948506172.jpg,,"[1.266722218, 103.6909192]",1,2
7,Chocoelf,Chocoelf - Jurong Food Hub,"[""Dessert"", ""Gifts"", ""Snack"", ""Mart"", ""Chocolate""]",1.308686,103.721884,https://d1sag4ddilekf6.cloudfront.net/compressed/merchants/4-C2MBJ3K1LNCXR2/hero/e43722893a834ce1a94cfe3a5a48ce2e_1616294376234611915.png,,"[1.308686, 103.721884]",2,3
8,Don Play Play,Don Play Play - Jurong Food Hub - Catering  ,"[""Catering"", ""Beverages"", ""Japanese""]",1.30888,103.72181,https://d1sag4ddilekf6.cloudfront.net/compressed/merchants/4-CZNZCP3KGXNXA6/hero/bef624492383461786fdd37e5f5ca2e2_1599624801621684553.jpeg,,"[1.30888, 103.72181]",2,3
9,Hai Sia Seafood,Hai Sia Seafood - Fishery Port Road ,"[""Groceries"", ""Seafood"", ""Mart"", ""Fresh Produce"", ""Islandwide Delivery""]",1.30876,103.72311,https://d1sag4ddilekf6.cloudfront.net/compressed/merchants/4-C2JHBEC2R4JYGJ/hero/ded5434d37a94fc9ba96fb4e00a2d3e9_1610772270364584724.jpeg,5.0,"[1.30876, 103.72311]",2,3
10,Asyura Paste,Asyura Paste - Jurong Food Hub ,"[""Asian"", ""Groceries"", ""Halal"", ""Mart"", ""Islandwide Delivery""]",1.308686,103.721884,https://d1sag4ddilekf6.cloudfront.net/compressed/merchants/4-C2NZNF6YLTL3PE/hero/02cbcaf83374412ea0ad73c0f3675f36_1619685683418968147.jpeg,,"[1.308686, 103.721884]",2,3
11,Pan Seas Enterprises Pte Ltd,Pan Seas Enterprises Pte Ltd - Fishery Port Road,"[""Groceries"", ""Halal"", ""Mart""]",1.3078374,103.7229856,https://d1sag4ddilekf6.cloudfront.net/compressed/merchants/4-CZM1EYTZCXUJNJ/hero/707689a0254449b8aa18ebd716efd815_1611549804227044452.jpg,4.0,"[1.3078374, 103.7229856]",2,3
12,Makan Mate,Makan Mate - Fishery Port Road Catering ,"[""Asian"", ""Catering"", ""Local""]",1.30812,103.72292,https://d1sag4ddilekf6.cloudfront.net/compressed/merchants/4-CZNDL4BYARJYVT/hero/abcb39701a684891bf1431067ce0ff98_1598364430451589029.png,,"[1.30812, 103.72292]",2,3
13,Hay Tasty,Hay Tasty - Penjuru Road,"[""Breakfast & Brunch"", ""Dessert"", ""Local""]",1.30567778468441,103.731341788716,https://d1sag4ddilekf6.cloudfront.net/compressed/merchants/4-C2MBHECJHFCJVE/hero/cab43cb181504eadbf642cb53f48fd9f_1616216351092718711.jpeg,2.0,"[1.30567778468441, 103.731341788716]",2,3
14,Yue Zi Le Confinement Catering,Yue Zi Le Confinement Catering - Jurong Food Hub,"[""Same Prices In-Store"", ""Chinese"", ""Local"", ""Catering""]",1.30888,103.72181,https://d1sag4ddilekf6.cloudfront.net/compressed/merchants/4-CZEGNRKDHBKBFA/hero/11a5dd69ef6e400ea8ad08e7fed47d8e_1588663926728313316.jpg,,"[1.30888, 103.72181]",2,3
15,Pondok Abang,Pondok Abang - Jurong Food Hub [Islandwide Delivery],"[""Convenience"", ""Groceries"", ""Frozen Food""]",1.308775,103.72183,https://d1sag4ddilekf6.cloudfront.net/compressed/merchants/4-C2LHNJCGBFWEGT/hero/fe24c9c6ebd34199a1ca00be3aef4d92_1615219407854896318.png,5.0,"[1.308775, 103.72183]",2,3
16,Fupi Beancurd Skin Crisps,Fupi Beancurd Skin Crisps - Gul Way ,"[""Convenience"", ""Snack"", ""Mart"", ""Islandwide Delivery""]",1.31261,103.67072,https://d1sag4ddilekf6.cloudfront.net/compressed/merchants/4-C2TVNAXFPE4ZVA/hero/98c9709662b14c529949d100f53ad68a_1622107705690787549.jpeg,,"[1.31261, 103.67072]",3,1
17,GJH Mart,GJH Mart - Gul Ave,"[""Mart"", ""Health & Wellness"", ""Convenience""]",1.3159448,103.6751247,https://d1sag4ddilekf6.cloudfront.net/compressed/merchants/4-C2EAGGLXLPBYNT/hero/9ab756c69de84feabbfb12baba881cac_1609825622726320547.png,,"[1.3159448, 103.6751247]",3,1
18,Japanese Korean Food,Japanese Korean Food - 60 Gul Lane,"[""Asian"", ""Ramen"", ""Japanese"", ""Same Prices In-Store""]",1.3143283672938606,103.66213205245585,https://d1sag4ddilekf6.cloudfront.net/compressed/merchants/4-CYT3AJMJTB6TLJ/hero/75r-24bits-100kb-e1f528a784ec0224db4919f3f1a4f824260f4052cf24206fa65618949d36db93-c7f15486a2654a0189f048a046185ac5_1564391442600223883.jpeg,2.8,"[1.3143283672938606, 103.66213205245585]",3,1
19,Confetti Snacks,Confetti Snacks - Gul Way,"[""Snacks"", ""Mart""]",1.315848,103.669942,https://d1sag4ddilekf6.cloudfront.net/compressed/merchants/4-C2AYRXVBLANFTT/hero/a012d168518c4ad58445aee68ae831a8_1611545021958372343.jpg,,"[1.315848, 103.669942]",3,1
20,Umami Food,Umami Food - Gul Lane,"[""Japanese"", ""Korean"", ""Rice""]",1.314247,103.662172,https://d1sag4ddilekf6.cloudfront.net/compressed/merchants/4-C2DCDA4JKFE2AJ/hero/ce38cf562a9f48e2b497137742e143a8_1606218348645183647.jpg,4.1,"[1.314247, 103.662172]",3,1
21,Kidmoro,Kidmoro - Tuas Ave 1 ,"[""Kids Friendly"", ""Mart"", ""Islandwide Delivery""]",1.32167,103.65992,https://d1sag4ddilekf6.cloudfront.net/compressed/merchants/4-C2TVNK62ELN3KE/hero/830ff1f57be344d9b260d899d876b3f5_1621262798293171871.jpg,,"[1.32167, 103.65992]",3,1
22,Cheers (FairPrice Xpress),Cheers (FairPrice Xpress) - Gul Circle MRT Station,"[""Mart"", ""Groceries"", ""Beverages"", ""Convenience""]",1.3191759833333334,103.65988645,https://d1sag4ddilekf6.cloudfront.net/compressed/merchants/4-C2JDLJTERKVANT/hero/92ddd8fa07a045e4adb1f62280745d91_1621875390424526268.jpg,5.0,"[1.3191759833333334, 103.65988645]",3,1
23,No 3,No 3 - Joo Koon Circle,"[""Beverages"", ""Asian"", ""Indian"", ""Same Prices In-Store""]",1.3275169,103.6774702,https://d1sag4ddilekf6.cloudfront.net/compressed/merchants/4-CZEBSB5JVJ5JEE/hero/d31e854b1e0b464c94e87684e3363138_1588178774195150971.jpg,5.0,"[1.3275169, 103.6774702]",3,1
24,Bun Times,Bun Times - Fairprice Hub,"[""Mart"", ""Local"", ""Snacks"", ""Asian"", ""Bakery""]",1.3271958,103.6784974,https://d1sag4ddilekf6.cloudfront.net/compressed/merchants/SGDD07304/hero/Bun_Times_Group_Shot_960x540.jpg,4.3,"[1.3271958, 103.6784974]",3,1
25,AA Restaurant,AA Restaurant - JTC Space - Tuas,"[""Indian"", ""Coffee & Tea""]",1.3213164,103.66129216666668,https://d1sag4ddilekf6.cloudfront.net/compressed/merchants/4-CZJEVB6KWBDUCA/hero/1a557cefcd1840289ba38f5210a75e63_1611712817848752877.jpeg,4.2,"[1.3213164, 103.66129216666668]",3,1
26,Nandhana's North and South Indian Restaurant,Nandhana's North and South Indian Restaurant - Fairprice Hub,"[""Indian"", ""Islandwide Delivery""]",1.3272323879402703,103.67851635928348,https://d1sag4ddilekf6.cloudfront.net/compressed/merchants/4-CYMZRGBENP3DC2/hero/57c58baaa6204fc78bccf6c5f4d2d42b_1601295495128391385.jpeg,4.2,"[1.3272323879402703, 103.67851635928348]",3,1
27,Mixed Veg. Rice,Kimly Mixed Rice - Joo Koon Road,"[""Local"", ""Chinese""]",1.32546,103.669345,https://d1sag4ddilekf6.cloudfront.net/compressed/merchants/4-CZD2C6MYNJTGTJ/hero/5b87c7b6fa994b82b79a57d899d7a428_1593484932439033999.jpeg,3.0,"[1.32546, 103.669345]",3,1
28,Prata On the Go,Prata On the Go - Benoi Road,"[""Indian""]",1.3271322768,103.6782269,https://d1sag4ddilekf6.cloudfront.net/compressed/merchants/SGDD10744/hero/78632677c91845c18367a065a7bb170a_1564646468658400981.jpeg,3.5,"[1.3271322768, 103.6782269]",3,1
29,Toast Box,Toast Box - Joo Koon,"[""Beverages"", ""Local"", ""Coffee"", ""Sandwiches"", ""Tea""]",1.3272108,103.6786733,https://d1sag4ddilekf6.cloudfront.net/compressed/merchants/4-CYTWUBCGAKJGGE/hero/6dbc31773bab4c98b77e011266a34315_1616571651454398190.jpeg,4.3,"[1.3272108, 103.6786733]",3,1
30,Hanguk Kitchen,Hanguk Kitchen - Fairprice Hub,"[""Asian"", ""Korean"", ""Beverages"", ""Soup""]",1.32741112192275,103.67837103459,https://d1sag4ddilekf6.cloudfront.net/compressed/merchants/4-C2NCAPWXR742FE/hero/ba7f85a975b147b6a40c1097bf433868_1622391037670438985.jpeg,,"[1.32741112192275, 103.67837103459]",3,1
31,Flavour Of Chang An,Flavour Of Chang An - Knife Shaved Noodle - Benoi Road,"[""Chinese"", ""Noodles""]",1.32713102,103.6781788,https://d1sag4ddilekf6.cloudfront.net/compressed/merchants/4-CYXHCJNAGENWWA/hero/958e72fdfcd6462d8ed7ec632a605581_1568712183590135513.jpg,4.2,"[1.32713102, 103.6781788]",3,1
32,Pearl's Court - Zi Char,Pearl's Court - Benoi Place,"[""Seafood"", ""Local"", ""Chinese""]",1.3133173780278895,103.67940215565808,https://d1sag4ddilekf6.cloudfront.net/compressed/merchants/SGDD02431/hero/upload-photo-Hero_Photo_c4aba1d092c54f78b29684827d50e24c_1555989476779375075.jpeg,4.1,"[1.3133173780278895, 103.67940215565808]",3,2
33,Nandhana's,Nandhana's - Fairprice Hub ,"[""Asian"", ""Indian"", ""Noodles""]",1.325456711,103.6787702,https://d1sag4ddilekf6.cloudfront.net/compressed/merchants/4-CZMAVRDUR8MYWE/hero/09d3e20c9bea49ce8f83f951dbc73d20_1601340464246131835.jpeg,4.0,"[1.325456711, 103.6787702]",3,2
34,San Seng,San Seng - Pioneer Crescent,"[""Mart"", ""Convenience"", ""Home and Hardware""]",1.3143204,103.6944905,https://d1sag4ddilekf6.cloudfront.net/compressed/merchants/4-CZJTT3BDUCBAGT/hero/d81308cdd8494e21b2cd8c21f13434f5_1611549817619472075.jpg,,"[1.3143204, 103.6944905]",3,2
35,Boxgreen x Juicy,Boxgreen x Juicy - Kian Teck Road [Islandwide Delivery],"[""Beverages"", ""Snacks"", ""Mart""]",1.3287270516368632,103.68833426779982,https://d1sag4ddilekf6.cloudfront.net/compressed/merchants/4-C2JGV3WCLJE2N6/hero/35a42e8a1734409cb071d84ecbe68dfe_1610707386632882539.jpeg,,"[1.3287270516368632, 103.68833426779982]",3,2
36,Frozendozen,Frozendozen - Ecotech-Sunview [Islandwide Delivery],"[""Groceries"", ""Mart"", ""Chicken"", ""Seafood"", ""Islandwide Delivery""]",1.31611035,103.6974996,https://d1sag4ddilekf6.cloudfront.net/compressed/merchants/4-CZKYSB5HNLJHEJ/hero/4d14fc34f0be4e2b8cccd7aa8189391a_1593623253478653932.png,5.0,"[1.31611035, 103.6974996]",3,2
37,The Nurturing Co. Pte. Ltd.,The Nurturing Co. Pte. Ltd. - Bambooloo,"[""Mart""]",1.3284351118991482,103.68834872669426,https://d1sag4ddilekf6.cloudfront.net/compressed/merchants/4-C2BUV6KZBFWYE6/hero/257e39b031d043f3af75a960962c0edd_1603245196208842205.jpeg,5.0,"[1.3284351118991482, 103.68834872669426]",3,2
38,JB Tai Pai Tong,JB Tai Pai Tong - West Connect,"[""Asian"", ""Chinese"", ""Islandwide Delivery""]",1.3132450000000002,103.70281449,https://d1sag4ddilekf6.cloudfront.net/compressed/merchants/SGDD06669/hero/75r-24bits-100kb-07bc90eede41d2343ec2e743e3c2de7d99cb7069c6297211dfe52a779e19c2e8-5a45dbd5c7d543e099fe828d07d0fced_1564394217704702191.jpeg,4.3,"[1.3132450000000002, 103.70281449]",3,2
39,Lai Kee Dim Sum,Lai Kee Dim Sum - West Connect Building,"[""Chinese"", ""Dim Sum""]",1.31325276,103.70288758857144,https://d1sag4ddilekf6.cloudfront.net/compressed/merchants/4-CYV2HF2GARMALN/hero/8058cd01643a4362a2928cfd41245fed_1566180526413170700.jpeg,4.4,"[1.31325276, 103.70288758857144]",3,2
40,De Shun,De Shun - West Connect Building,"[""Chinese""]",1.31311279968673,103.702414411045,https://d1sag4ddilekf6.cloudfront.net/compressed/merchants/4-C2T3CXWZTUL1GA/hero/4df4ee8de1b8448680db1a4c3bede058_1621915276937483545.jpg,,"[1.31311279968673, 103.702414411045]",3,2
41,Kim San Leng Drinks & Snacks,Kim San Leng Drinks & Snacks - Buroh Street,"[""Beverages""]",1.31311279968673,103.702414411045,https://d1sag4ddilekf6.cloudfront.net/compressed/merchants/4-C2T2GT5DCENANT/hero/b1c19b5a60e645f9afd494272cc726e3_1621857401538254623.jpeg,,"[1.31311279968673, 103.702414411045]",3,2
42,Chap He Diam,Chap He Diam - Soon Lee Road [Islandwide Delivery],"[""Alcohol"", ""Mart"", ""Islandwide Delivery""]",1.3321935,103.6989469361526,https://d1sag4ddilekf6.cloudfront.net/compressed/merchants/4-CYMJLB3JAFADC2/hero/737ccdc481bb4d7399cbd4478ed1b991_1560931430209418385.jpeg,4.8,"[1.3321935, 103.6989469361526]",3,2
43,Popeyes,Popeyes - Joo Koon,"[""Chicken"", ""Western"", ""Halal"", ""Fast Food""]",1.3272069,103.67886289032518,https://d1sag4ddilekf6.cloudfront.net/compressed/merchants/SGDD01911/hero/1cd2f6fc84cc41f3bbbf40e7087665b3_1622512509664336474.jpeg,4.3,"[1.3272069, 103.67886289032518]",3,2
44,Han's,Han's - Fairprice Hub,"[""Western"", ""Fusion"", ""Local""]",1.327157225,103.67885672857142,https://d1sag4ddilekf6.cloudfront.net/compressed/merchants/4-CZDFTY5TSCL3CT/hero/a98c35c332a347589d59c20ef3df3281_1591685353679181672.jpeg,4.4,"[1.327157225, 103.67885672857142]",3,2
45,Banyan Ayam Penyet,Banyan Ayam Penyet - Fairprice Hub,"[""Asian"", ""Islandwide Delivery""]",1.3270785026197274,103.67883072699186,https://d1sag4ddilekf6.cloudfront.net/compressed/merchants/SGDD00330/hero/upload-photo-Hero_Photo_2a49ca894bb741f29d424770f9ce3d90_1554952638081567973.jpeg,4.3,"[1.3270785026197274, 103.67883072699186]",3,2
46,Domino's,Domino's - Joo Koon,"[""Western"", ""Fast Food"", ""Pizza"", ""Halal"", ""Chicken""]",1.325456711,103.6787702,https://d1sag4ddilekf6.cloudfront.net/compressed/merchants/SGDD09614/hero/e2d22dd2a29f483f989694fbc6c8cbdd_1620730384946053346.jpg,4.3,"[1.325456711, 103.6787702]",3,2
47,KNS Restaurant,KNS Restaurant - Jurong West Street 93,"[""Indian"", ""Local"", ""Noodles""]",1.3351346,103.695754175,https://d1sag4ddilekf6.cloudfront.net/compressed/merchants/SGDD08129/hero/dd5656523be140d4a393882d2596c386_1597486699292224777.jpeg,3.9,"[1.3351346, 103.695754175]",3,2
48,McDonald's,McDonald's - Fairprice Hub,"[""Chicken"", ""Fast Food"", ""Halal"", ""Burger""]",1.327233625849459,103.67888617515337,https://d1sag4ddilekf6.cloudfront.net/compressed/merchants/SGDD04947/hero/0f507f87250b4a4b94c8bfb4dd94ace2_1622082875450829192.jpeg,4.5,"[1.327233625849459, 103.67888617515337]",3,2
49,Jollibean,Jollibean - Fairprice Hub,"[""Local"", ""Healthy"", ""Breakfast & Brunch"", ""Snack""]",1.327161,103.67880791567543,https://d1sag4ddilekf6.cloudfront.net/compressed/merchants/4-CYLXGEJYAEKXJ2/hero/1b645fbf640341659e4d841a605a091c_1578631813451305786.jpeg,4.0,"[1.327161, 103.67880791567543]",3,2
50,Crave,Crave - Fairprice Hub,"[""Chicken"", ""Local"", ""Nasi Lemak""]",1.3271992,103.6788711,https://d1sag4ddilekf6.cloudfront.net/compressed/merchants/4-CZM3UFUZAXBKNN/hero/70bb37fa9d924e9b828c8b02a1541441_1597990433007855886.jpeg,4.4,"[1.3271992, 103.6788711]",3,2
51,Sushi Express,Sushi Express - Fairprice Hub,"[""Japanese"", ""Sushi"", ""Asian"", ""Healthy""]",1.3272579954545456,103.67886775714284,https://d1sag4ddilekf6.cloudfront.net/compressed/merchants/4-CYLXGEL1L7WGWA/hero/92e9f1caaa6040138e39a8a4042a70c6_1572187168000692196.png,4.3,"[1.3272579954545456, 103.67886775714284]",3,2
52,Burger King,Burger King - Fairprice Hub,"[""American"", ""Burger"", ""Halal""]",1.327195337878788,103.67885786,https://d1sag4ddilekf6.cloudfront.net/compressed/merchants/4-CY3TEGMJLJMFR6/hero/a6d3b098f9104c86ae988b883e73d9eb_1622520205837258947.jpeg,4.2,"[1.327195337878788, 103.67885786]",3,2
53,1983 Coffee & Toast,1983 Coffee & Toast - Fairprice Hub,"[""Breakfast"", ""Local"", ""Halal"", ""Beverages"", ""Same Prices In-Store""]",1.32713142,103.67880716250323,https://d1sag4ddilekf6.cloudfront.net/compressed/merchants/4-CZBHAY6HN7ATA2/hero/d882f68797b24aeab5ab1097f646006f_1582705791186541326.jpg,4.6,"[1.32713142, 103.67880716250323]",3,2
54,Zheng Wei Ren Sheng,Zheng Wei Ren Sheng - Pioneer Junction (MR3),"[""Chinese""]",1.33348,103.69771,https://d1sag4ddilekf6.cloudfront.net/compressed/merchants/4-C2T1MBVDWA32AE/hero/9a5f9fa492664f4ab2a23a145b183a53_1621758644081739736.jpg,,"[1.33348, 103.69771]",3,2
55,Cheers (FairPrice Xpress),Cheers (FairPrice Xpress) - Fairprice Hub,"[""Mart"", ""Groceries"", ""Beverages"", ""Convenience""]",1.3272521666666668,103.67890302222224,https://d1sag4ddilekf6.cloudfront.net/compressed/merchants/4-C2JDLJTEL3WUUA/hero/9f49ff8650674446828b5476c7d02359_1621875390398273642.jpg,5.0,"[1.3272521666666668, 103.67890302222224]",3,2
56,Dragon Seafood,Dragon Seafood - The Arena Country Club,"[""Local"", ""Seafood""]",1.32981647,103.6807649,https://d1sag4ddilekf6.cloudfront.net/compressed/merchants/4-CYV2NPNZJETUCA/hero/1146fd99439146e0a33979abd5061c17_1571889070144101719.jpeg,4.2,"[1.32981647, 103.6807649]",3,2
57,The Buddha Bowl,The Buddha Bowl - d'Arena,"[""Vegetarian"", ""Asian"", ""Vegan""]",1.3296372,103.6826557,https://d1sag4ddilekf6.cloudfront.net/compressed/merchants/4-CYLTMATJHEL2V6/hero/upload-photo-Hero_Photo_eab8fef266814191addfc96a9bb57e50_1556079221705302688.jpeg,4.6,"[1.3296372, 103.6826557]",3,2
58,Cheers @ Esso,Cheers @ Esso - Pioneer,"[""Mart""]",1.313246,103.686997,https://d1sag4ddilekf6.cloudfront.net/compressed/merchants/4-C2LCGNTUCTB3SE/hero/fb2203a7fbb94f9089c08183c090521c_1621875391128015298.jpg,5.0,"[1.313246, 103.686997]",3,2
59,Kindred Teas,Kindred Teas - Pioneer Junction,"[""Tea"", ""Mart"", ""Groceries""]",1.3335528000000003,103.69709559950536,https://d1sag4ddilekf6.cloudfront.net/compressed/merchants/4-CZCKL65ZSAVYLN/hero/dbf41a19d8a74fe8b281808ece158a13_1615977959359279395.jpeg,,"[1.3335528000000003, 103.69709559950536]",3,2
60,Xiang Wei Qing,Xiang Wei Qing - Pioneer Point,"[""Chinese"", ""Asian""]",1.3333548565217392,103.6984302,https://d1sag4ddilekf6.cloudfront.net/compressed/merchants/4-CYUCLYB1KFWCNE/hero/256f7901a48a4948adc3cd70e05df5d7_1562296454739260018.jpeg,3.9,"[1.3333548565217392, 103.6984302]",3,2
61,Hui Huang Roasted Delight,Hui Huang Roasted Delight - Pioneer Centre,"[""Chinese"", ""Asian""]",1.33240848,103.69691971,https://d1sag4ddilekf6.cloudfront.net/compressed/merchants/4-CYMJLB3TJ8KCJA/hero/3dd1df40ff6349a892d6f054963499f6_1563169241657752304.jpeg,4.1,"[1.33240848, 103.69691971]",3,2
62,Tian En Vegetarian 天恩素食,Tian En Vegetarian 天恩素食 - Pioneer Point,"[""Chinese"", ""Vegetarian Friendly""]",1.333371,103.699242,https://d1sag4ddilekf6.cloudfront.net/compressed/merchants/4-C2UGFBABFGBEC2/hero/1abe84e0aab7410aa11cd825b9c40fb8_1622628401494578071.jpg,,"[1.333371, 103.699242]",3,2
63,Guang dong Ji HK Roasted Meat Noodles House,Guang dong Ji HK Roasted Meat Noodles House - Pioneer,"[""Chinese"", ""Chicken""]",1.333367,103.69848876940743,https://d1sag4ddilekf6.cloudfront.net/compressed/merchants/SGDD06651/hero/Guang_Dong_Ji_HK_Roasted_Meat_Noodles_House.jpg,3.7,"[1.333367, 103.69848876940743]",3,2
64,Kueh Stall,Kueh Stall - Pioneer Point,"[""Chinese""]",1.33332,103.699242,https://d1sag4ddilekf6.cloudfront.net/compressed/merchants/4-C2T3ECEBCZCHTJ/hero/a877bf2ddaaa4a93ba99e5d00b3c1d90_1621920881266979635.jpg,,"[1.33332, 103.699242]",3,2
65,Zhong Hua Mei Shi,Zhong Hua Mei Shi - Pioneer Junction,"[""Chinese""]",1.33344336448387,103.697581793678,https://d1sag4ddilekf6.cloudfront.net/compressed/merchants/4-C2UGE2VDPEATGJ/hero/63b9e7bf6ab4463ba98c0d27b7aabd16_1622626243902991537.jpg,,"[1.33344336448387, 103.697581793678]",3,2
66,Santoshimaa,Santoshimaa - Pioneer Point,"[""Indian""]",1.333371,103.699242,https://d1sag4ddilekf6.cloudfront.net/compressed/merchants/4-C2UGDEXGJRCYJX/hero/d1949a39e06244feb304f453dbbbf2f9_1622619286539302846.jpg,,"[1.333371, 103.699242]",3,2
67,Lu Da Jie Economical Bee Hoon & Nasi Lemak,Lu Da Jie Economical Bee Hoon & Nasi Lemak - Pioneer Centre,"[""Asian""]",1.332486784994515,103.69698948825754,https://d1sag4ddilekf6.cloudfront.net/compressed/merchants/4-C2THCXJXNA6VVN/hero/08c30f90ac3549d09b0e704ec2bdac54_1620724165211646688.jpeg,3.7,"[1.332486784994515, 103.69698948825754]",3,2
68,Subway,Subway - Fairprice Hub,"[""Healthy"", ""Sandwiches"", ""Fast Food"", ""Halal"", ""Western""]",1.32721075,103.67876654411764,https://d1sag4ddilekf6.cloudfront.net/compressed/merchants/4-CYN2GYVEN8LTPA/hero/de80cdb3803449efa4afbf1e3df10362_1576205994139228009.png,4.4,"[1.32721075, 103.67876654411764]",3,2
69,Old Chang Kee,Old Chang Kee - Fairprice Hub,"[""Halal"", ""Snack"", ""Local"", ""Finger Food"", ""Asian""]",1.3272290263388695,103.67897275749118,https://d1sag4ddilekf6.cloudfront.net/compressed/merchants/4-CYN2GYVACNMGET/hero/36e1a2ce846941d8915150e24982b757_1561689868516719931.jpeg,4.7,"[1.3272290263388695, 103.67897275749118]",3,2
70,Mmeow,Mmeow - Pioneer Junction,"[""Chinese""]",1.333624,103.69776,https://d1sag4ddilekf6.cloudfront.net/compressed/merchants/4-C2TYSCN2UB6KLX/hero/1e7a8d7283744385b420f7611579d087_1621578999029596814.jpg,5.0,"[1.333624, 103.69776]",3,2
71,Tung Lok Seafood - JR,Tung Lok Seafood - JR - Upper Jurong Road,"[""Asian"", ""Chinese"", ""Local"", ""Seafood"", ""Singaporean""]",1.32968445,103.683186433235,https://d1sag4ddilekf6.cloudfront.net/compressed/merchants/4-C2MUVA6UG2BGLN/hero/6a01596cb44548a7b925a55c8c1b0960_1617246961796087356.jpeg,4.4,"[1.32968445, 103.683186433235]",3,2
72,Kim San Leng Drinks & Snacks,Kim San Leng Drinks & Snacks - Pioneer Junction,"[""Beverages""]",1.3340851,103.6970773,https://d1sag4ddilekf6.cloudfront.net/compressed/merchants/4-C2T2JGAFLABXJ6/hero/206d0f6fbc2446329949b5c18e1d10f7_1621841805606611249.jpg,,"[1.3340851, 103.6970773]",3,2
73,PastaMania,PastaMania - Fairprice Hub,"[""Halal"", ""Italian"", ""Same Prices In-Store"", ""Pasta""]",1.327193,103.67885158,https://d1sag4ddilekf6.cloudfront.net/compressed/merchants/4-C2EVGKCZR6NBTX/hero/cc43723362b143eaaf4a7a8476ca98db_1609248376390868966.jpeg,4.5,"[1.327193, 103.67885158]",3,2
74,Power Grill Western,Power Grill Western - Arena Country Club,"[""Western""]",1.3298756070447433,103.68085534,https://d1sag4ddilekf6.cloudfront.net/compressed/merchants/4-C2ATDAKAWEMZV2/hero/951c70b4d4ab48858d2c8fb4e49844ed_1601018121077811447.jpg,3.9,"[1.3298756070447433, 103.68085534]",3,2
75,Sing Yi Seafood Garden,Sing Yi Seafood Garden - Pioneer Point,"[""Local"", ""Seafood"", ""Chinese""]",1.33333,103.6983677,https://d1sag4ddilekf6.cloudfront.net/compressed/merchants/4-C2AKCNUACK53R6/hero/7c9a246faded45d08f38574c6e7b8f04_1600918196189533258.jpeg,4.2,"[1.33333, 103.6983677]",3,2
76,Mookata Udon Thani,Mookata Udon Thani - Arena Country Club,"[""Thai""]",1.329479,103.682657,https://d1sag4ddilekf6.cloudfront.net/compressed/merchants/4-C2T2LUVUN3XFCN/hero/64dfbb01ae7f4071a346e2c10b14ce89_1621854651807619926.jpg,4.0,"[1.329479, 103.682657]",3,2
77,Lai Kee Dim Sum,Lai Kee Dim Sum - Pioneer Point,"[""Chinese"", ""Dim Sum""]",1.3333916,103.69843098,https://d1sag4ddilekf6.cloudfront.net/compressed/merchants/4-CZB1LKVFNYDKC2/hero/7454a79ad32b40da8b2dfb6304a5d6f1_1583807844872002507.jpeg,4.3,"[1.3333916, 103.69843098]",3,2
78,Kim San Leng Drinks & Snacks,Kim San Leng Drinks & Snacks - Pioneer Point,"[""Beverages""]",1.33328,103.69854,https://d1sag4ddilekf6.cloudfront.net/compressed/merchants/4-C2T2HATBJ351TE/hero/348ca9c5ebf14d34b5587b24d5b6e947_1621838201553104345.jpg,,"[1.33328, 103.69854]",3,2
79,Rasa Istimewa Restaurant,Rasa Istimewa Restaurant - Safra Jurong Club [Islandwide Delivery],"[""Halal"", ""Asian"", ""Seafood"", ""Local"", ""Islandwide Delivery""]",1.335383,103.7062931,https://d1sag4ddilekf6.cloudfront.net/compressed/merchants/SGDD10157/hero/7163a8ce55894debb4535bbb30ec1a17_1565690903461526322.jpeg,4.5,"[1.335383, 103.7062931]",3,3
80,Shun Dat,Shun Dat - Taman Jurong Shopping Center,"[""Mart""]",1.3346588,103.72097895,https://d1sag4ddilekf6.cloudfront.net/compressed/merchants/4-C2A2RJ31TYB2R6/hero/fd8015208583409795d31a4a43969cb6_1611567456720110427.jpg,,"[1.3346588, 103.72097895]",3,3
81,The Grocery Co,The Grocery Co - By DKSH - Jalan Buroh (Next Day Delivery),"[""Mart"", ""Groceries"", ""Local"", ""Convenience""]",1.317135118,103.7152027,https://d1sag4ddilekf6.cloudfront.net/compressed/merchants/4-CZKKEBUFAFKGCX/hero/8c1240af10b4406096b945f9cf17e6f0_1592972688294227950.jpeg,2.0,"[1.317135118, 103.7152027]",3,3
82,Rong Tat Food,Rong Tat Food - Wan Lee Road,"[""Convenience"", ""Groceries"", ""Frozen Food""]",1.33159,103.7055,https://d1sag4ddilekf6.cloudfront.net/compressed/merchants/4-C2DXC26TLT22CA/hero/505fa81b5cec4be8b21c7af65cd3f1b7_1607479533975562323.jpeg,5.0,"[1.33159, 103.7055]",3,3
83,Kim Mart,Kim Mart - Quality Road,"[""Asian"", ""Chicken"", ""Local"", ""Convenience"", ""Same Prices In-Store""]",1.335411,103.710847,https://d1sag4ddilekf6.cloudfront.net/compressed/merchants/4-C2MUTNCEV4LTN2/hero/93f3974591c34bdf999c08d3ca65d34b_1617183045066460177.jpg,5.0,"[1.335411, 103.710847]",3,3
84,The Social Kitchen,The Social Kitchen - Jurong Bird Park [Islandwide Delivery],"[""Vegetarian Friendly"", ""Same Prices In-Store"", ""Islandwide Delivery"", ""Asian"", ""Social Enterprises""]",1.3208912,103.70657274687076,https://d1sag4ddilekf6.cloudfront.net/compressed/merchants/4-C2DZNELYRALAFE/hero/f4e0adda8d864e099ded4876ffe2c975_1607670163659267531.jpeg,4.8,"[1.3208912, 103.70657274687076]",3,3
85,Mead Johnson Official Store,Enfagrow Official Store - Jalan Buroh,"[""Islandwide Delivery"", ""Health & Wellness"", ""Mart"", ""Local""]",1.317135118,103.7152027,https://d1sag4ddilekf6.cloudfront.net/compressed/merchants/4-CZKKEBT2HAEBJA/hero/a4fac679a67c422ba451b9aa2852c26c_1593061650137130730.jpeg,2.1,"[1.317135118, 103.7152027]",3,3
86,The Seafood Market Place By Song Fish,The Seafood Market Place By Song Fish - Fishery Port Road ,"[""Groceries"", ""Seafood"", ""Frozen Food"", ""Mart"", ""Islandwide Delivery""]",1.3117545,103.7242922,https://d1sag4ddilekf6.cloudfront.net/compressed/merchants/4-C2NZTXNUGTB2GJ/hero/29302f35df3b45cab2d37d9e1bd67089_1620108297936931874.jpeg,5.0,"[1.3117545, 103.7242922]",3,3
87,Ban Choon Marketing,Good Together by Ban Choon - Quality Road,"[""Groceries"", ""Health & Wellness"", ""Mart"", ""Kids Friendly"", ""Convenience""]",1.32906176,103.7101658,https://d1sag4ddilekf6.cloudfront.net/compressed/merchants/4-CZDCJTMVEYVHNA/hero/55e2a522370e4bd7841ed49d3d20d588_1603864872743573288.jpeg,4.3,"[1.32906176, 103.7101658]",3,3
88,Chewly Biscuits & Snacks,Chewly Biscuits & Snacks - Quality Road,"[""Convenience Store/Minimart"", ""Grocery"", ""Snacks""]",1.3356128,103.7108686,https://d1sag4ddilekf6.cloudfront.net/compressed/merchants/4-CZKDVJB2GVCULN/hero/59180cd596254539be87ed07c0f33a6d_1594977566855167326.jpeg,5.0,"[1.3356128, 103.7108686]",3,3
89,Beafash SG,Beafash SG - Yung Ho Spring I,"[""Convenience"", ""Mart"", ""Health & Wellness""]",1.3272631375,103.72341323333336,https://d1sag4ddilekf6.cloudfront.net/compressed/merchants/4-CZNUA72UJXBGUA/hero/cf41028e105d42f0bb97463ebe6c4dff_1599148795682463652.jpg,,"[1.3272631375, 103.72341323333336]",3,3
90,Farmart Bbq,Farmart Bbq - Jurong Theatre [Islandwide Delivery],"[""Chinese"", ""Seafood"", ""Islandwide Delivery""]",1.3343484,103.722176,https://d1sag4ddilekf6.cloudfront.net/compressed/merchants/4-CYMCJ7VYGEWBFE/hero/7c110e8ac33c4b9db5c3a83ad566f97b_1561005271010034928.jpeg,4.3,"[1.3343484, 103.722176]",3,3
91,The Digital Pharmacy Co,The Pharmacy Co - By DKSH - Jalan Buroh (Next Day Delivery),"[""Wellness"", ""Health & Wellness"", ""Mart"", ""Local""]",1.317135118,103.7152027,https://d1sag4ddilekf6.cloudfront.net/compressed/merchants/4-CZKKEBWJAJWCR2/hero/87f2622c18cf4ecd98425d5b1acd3608_1593510818167507192.jpeg,,"[1.317135118, 103.7152027]",3,3
92,Eastern Harvest,Eastern Harvest - Jalan Tepong,"[""Mart"", ""Frozen Food"", ""Noodles""]",1.310401943854731,103.7215008199252,https://d1sag4ddilekf6.cloudfront.net/compressed/merchants/4-CZMGAA4JSFNWL2/hero/66364eaa20c44ed59785d1bc2fb84579_1596617430500252253.jpeg,-1.0,"[1.310401943854731, 103.7215008199252]",3,3
93,Umaimon,Umaimon - Buroh Lane,"[""Convenience"", ""Japanese"", ""Local"", ""Mart""]",1.31478581973723,103.724441996245,https://d1sag4ddilekf6.cloudfront.net/compressed/merchants/4-C2M1TBVKPFJXCE/hero/64c8aeceab464b16b284d10b6cc2a70c_1617780649781126509.jpg,,"[1.31478581973723, 103.724441996245]",3,3
94,Hen Tick Foods,Hen Tick Foods - Chin Bee Road,"[""Convenience"", ""Seafood"", ""Mart"", ""Frozen Food"", ""Fresh Produce""]",1.332287719624227,103.711578242609,https://d1sag4ddilekf6.cloudfront.net/compressed/merchants/4-C2JZGJVGN2EKRX/hero/577dfa3fb9ef4578a6c32411eb1a54c2_1611668928431260067.jpeg,5.0,"[1.332287719624227, 103.711578242609]",3,3
95,Old Chang Kee,Old Chang Kee - Spc Service Station (Jalan Buroh),"[""Halal"", ""Snack"", ""Local"", ""Finger Food"", ""Asian""]",1.3147028,103.7148715,https://d1sag4ddilekf6.cloudfront.net/compressed/merchants/4-CYN2GYVECX4TJE/hero/51b30f6675d74ae8aeae38628aa9a0d0_1561689933224433551.jpeg,4.5,"[1.3147028, 103.7148715]",3,3
96,Chu Yi Shi Wu,Chu Yi Shi Wu - Jurong Port Road,"[""Groceries"", ""Mart""]",1.318229236,103.7205115,https://d1sag4ddilekf6.cloudfront.net/compressed/merchants/4-C2EWFGCXE7DBT2/hero/be2b54bba4c6449ab832683ddbe6cce3_1615547857561364644.png,,"[1.318229236, 103.7205115]",3,3
97,Co+Nut+Ink,Co+Nut+Ink - International Road,"[""Mart"", ""Dessert"", ""Beverages"", ""Snacks""]",1.3295160895143274,103.7112684358279,https://d1sag4ddilekf6.cloudfront.net/compressed/merchants/4-CZDTAXMVJYUTAJ/hero/aa6a7d4703f24d8d83dcf79e0a099030_1593075704310235935.jpeg,4.4,"[1.3295160895143274, 103.7112684358279]",3,3
98,The Meat Club,The Meat Club - Chin Bee Ave (Next Day Delivery),"[""Islandwide Delivery"", ""Mart"", ""Groceries"", ""Local"", ""Chicken""]",1.334043,103.7142267,https://d1sag4ddilekf6.cloudfront.net/compressed/merchants/4-CZKKT33XKBMVDE/hero/a215d27a7b534d3186d5d102965a7b20_1592989420493786155.jpeg,5.0,"[1.334043, 103.7142267]",3,3
99,Mogushop,MoguShop - Commonwealth Capital Building,"[""Japanese"", ""Mart"", ""Snacks"", ""Groceries"", ""Alcohol""]",1.3152482,103.7233928,https://d1sag4ddilekf6.cloudfront.net/compressed/merchants/4-CZMGBEJBGX3GG6/hero/cb66e831c4a64c69bfddfea5f2a95e72_1596609734926687682.jpeg,5.0,"[1.3152482, 103.7233928]",3,3
100,Yew Luck Luck,Yew luck luck - Yung Kuang Road [Islandwide Delivery],"[""Fruits & Vegetables"", ""Alcohol"", ""Convenience Store/Minimart"", ""Groceries"", ""Beverages""]",1.3311045111912363,103.72148287820676,https://d1sag4ddilekf6.cloudfront.net/compressed/merchants/4-CZDBSBAVEVKKNJ/hero/e872a5f5f25e4cfda0bca611a9f14d39_1611567603814651038.jpg,4.7,"[1.3311045111912363, 103.72148287820676]",3,3
101,Pantry Selects,Pantry Selects - Chin Bee Ave ,"[""Alcohol"", ""Convenience"", ""Mart"", ""Frozen Food"", ""Islandwide Delivery""]",1.334043,103.7142267,https://d1sag4ddilekf6.cloudfront.net/compressed/merchants/4-C2KECN4BGX6GNA/hero/521bacdcdc4e4f6d85227c67281e1481_1612414077645024309.jpeg,,"[1.334043, 103.7142267]",3,3
102,Sheng Siong (JS),Sheng Siong (JS) - Yuan Ching Road,"[""Convenience"", ""Groceries""]",1.32574815,103.7250803,https://d1sag4ddilekf6.cloudfront.net/compressed/merchants/4-C2KEERCGEENWTX/hero/b116470e77064a628d1c242162996134_1612423846336594070.jpg,,"[1.32574815, 103.7250803]",3,3
103,Wahyu Brand,Wahyu Brand - International Road ,"[""Singaporean"", ""Snacks"", ""Spices"", ""Mart"", ""Islandwide Delivery""]",1.329134508168039,103.71115282501574,https://d1sag4ddilekf6.cloudfront.net/compressed/merchants/4-C2L3R64BE26UCA/hero/aea5643837cb4cfb842983e9ebf8aa1b_1616059042465500992.jpeg,4.2,"[1.329134508168039, 103.71115282501574]",3,3
104,The Ice Cream Store,The Ice Cream Store - Jalan Ahmad Ibrahim,"[""Ice Cream"", ""Mart""]",1.32356305,103.721826,https://d1sag4ddilekf6.cloudfront.net/compressed/merchants/4-C2NKCETTAULVDE/hero/75def56ed58f42caa515f2e0f2903da0_1618919911026667130.jpeg,5.0,"[1.32356305, 103.721826]",3,3
105,ON the GO,ON the GO - SAFRA Jurong,"[""Asian"", ""Halal"", ""Local"", ""Chicken""]",1.3351116,103.70668476441664,https://d1sag4ddilekf6.cloudfront.net/compressed/merchants/SGDD05599/hero/9cc5e3f329204032b71a0dbfad65ebe3_1574648784607707608.jpeg,3.6,"[1.3351116, 103.70668476441664]",3,3
106,Hen Tick Foods,Hen Tick Foods - Chin Bee Road ,"[""Convenience"", ""Seafood"", ""Mart"", ""Frozen Food"", ""Islandwide Delivery""]",1.332287719624227,103.711578242609,https://d1sag4ddilekf6.cloudfront.net/compressed/merchants/4-C2JZGJ6WNXDGV6/hero/4eb73e43b16c4aa79d0227e3428d8336_1611671283461118851.jpeg,,"[1.332287719624227, 103.711578242609]",3,3
107,Jin Long Roasted Delights,Jin Long Roasted Delights - Taman Jurong Shopping Centre,"[""Chicken"", ""Convenience"", ""Local"", ""Singaporean""]",1.3349306360130129,103.72035008963228,https://d1sag4ddilekf6.cloudfront.net/compressed/merchants/4-C2LUTFNTAANEVE/hero/420e51e8208b4d40903d2040db9a4074_1615524482768259682.jpeg,4.2,"[1.3349306360130129, 103.72035008963228]",3,3
108,Subway,Subway - Jurong Superbowl,"[""Healthy"", ""Sandwiches"", ""Fast Food"", ""Halal"", ""Western""]",1.32576857,103.72491335,https://d1sag4ddilekf6.cloudfront.net/compressed/merchants/4-CYN2GYVKVA2XG2/hero/35a0a3fbf431420d8de86e4fcfde6b70_1576205991093878852.png,4.6,"[1.32576857, 103.72491335]",3,3
109,Pizza Hut,Pizza Hut - Jurong Super Bowl,"[""Pizza"", ""Halal"", ""Fast Food"", ""Western"", ""Pasta""]",1.3258383,103.72530166666664,https://d1sag4ddilekf6.cloudfront.net/compressed/merchants/4-CY3KMBVBV7T1RT/hero/65532a2ef46f4cd0b188bb9dd6e0004d_1591695166746718789.png,4.3,"[1.3258383, 103.72530166666664]",3,3
110,7Tea,7Tea - Taman Jurong Market & Food Centre [#03-142],"[""Bubble Tea"", ""Dessert"", ""Beverages""]",1.3345495025360332,103.72151823,https://d1sag4ddilekf6.cloudfront.net/compressed/merchants/4-C2AYHE33RUTFFA/hero/341db4546947423785e35b8885b9da46_1608538464555450744.jpeg,4.7,"[1.3345495025360332, 103.72151823]",3,3
111,Springleaf Prata,Springleaf Prata Place - Jurong SAFRA,"[""Indian"", ""Vegetarian"", ""Breakfast & Brunch"", ""Halal"", ""Vegan""]",1.3350931545788427,103.70644669359598,https://d1sag4ddilekf6.cloudfront.net/compressed/merchants/SGDD07281/hero/2523e239ad574a1f86a6b01528e7d252_1573400940624513909.png,4.3,"[1.3350931545788427, 103.70644669359598]",3,3
112,Unicuz Roasted Delights 宏缘美食馆 港式烧腊,Unicuz Roasted Delights 宏缘美食馆 港式烧腊 - Yuan Ching Road,"[""Asian"", ""Chinese"", ""Singaporean""]",1.3256208643487983,103.72551486666669,https://d1sag4ddilekf6.cloudfront.net/compressed/merchants/4-C2C1MCEKTLC2RA/hero/54c6c7b6579242329918eade3cd28b3c_1605758889895878248.jpg,4.2,"[1.3256208643487983, 103.72551486666669]",3,3
113,Hong Kong Street Cheng Ji,Hong Kong Street Cheng Ji - Taman Jurong Shopping Centre,"[""Chinese"", ""Local"", ""Seafood"", ""Singaporean""]",1.3349598,103.72020545,https://d1sag4ddilekf6.cloudfront.net/compressed/merchants/4-C2J1EGCCKAT3NJ/hero/ea96391d54ee40e3b4b3da3abe0c03a3_1611721842586820465.jpg,4.0,"[1.3349598, 103.72020545]",3,3
114,Curries By Kilo,Curries By Kilo - Par Building,"[""Asian"", ""Indian"", ""Local"", ""Vegetarian Friendly""]",1.3293,103.71114,https://d1sag4ddilekf6.cloudfront.net/compressed/merchants/4-C2TYCY5BL22UJ6/hero/35bd24d325f84541beea1415bd9faa23_1622286590488391391.jpeg,,"[1.3293, 103.71114]",3,3
115,Kampong House Mini Wok,Kampong House Mini Wok - Yuan Ching Road,"[""Local""]",1.3256320499999998,103.7254927,https://d1sag4ddilekf6.cloudfront.net/compressed/merchants/4-CYNGPAEWV3WGWE/hero/75r-24bits-100kb-1942ce067bc15dac16aa3d77cf2efb13d8194e7eb295fb62ad562598fbcaf8a1-dbb59eeff76747b491926f41a4cb4549_1563958860262627394.jpeg,4.4,"[1.3256320499999998, 103.7254927]",3,3
116,158 Kitchen,158 Kitchen - Yung Loh Road,"[""Chinese"", ""Seafood"", ""Noodles""]",1.328482334104071,103.7223712,https://d1sag4ddilekf6.cloudfront.net/compressed/merchants/4-CY2VEKCZJAX3BE/hero/8d51315a013c4b6f97b92b69c23a174b_1571222459427035695.jpg,4.1,"[1.328482334104071, 103.7223712]",3,3
117,Teng Sheng Western Food,Teng Sheng Western Food - Jurong Leisure Complex,"[""Asian"", ""Western""]",1.3256166713177295,103.7254656,https://d1sag4ddilekf6.cloudfront.net/compressed/merchants/SGDD10684/hero/efec946550504c8bbc127f5508965232_1583143824387553717.jpg,4.2,"[1.3256166713177295, 103.7254656]",3,3
118,Shang Shang Quan,Shang Shang Quan - Taman Jurong Shopping Centre,"[""Chinese"", ""Asian""]",1.334986,103.71987697153976,https://d1sag4ddilekf6.cloudfront.net/compressed/merchants/4-CYMFLRLHA752VX/hero/b616fa46073f4085aa5a2a50c709620c_1562301155557722436.jpeg,3.8,"[1.334986, 103.71987697153976]",3,3
119,Salim Kitchen,Salim Kitchen - Yung Sheng Road,"[""Asian"", ""Noodles"", ""Satay"", ""Chicken Rice""]",1.334618466757142,103.7215298,https://d1sag4ddilekf6.cloudfront.net/compressed/merchants/4-C2DJAB6KMANTCX/hero/7520ce95cdf64f06ba171b09b0e33e5b_1606800789714021065.jpg,5.0,"[1.334618466757142, 103.7215298]",3,3
120,Tenderbest,TenderBest - Jurong Theatre,"[""Western"", ""Steak"", ""Burger"", ""Pasta""]",1.3342719376087189,103.72214,https://d1sag4ddilekf6.cloudfront.net/compressed/merchants/SGDD08078/hero/63ff75581e58df68cc659bdc95d763d3-w550-97.jpg,4.5,"[1.3342719376087189, 103.72214]",3,3
121,Ah Er Soup,Ah Er Soup - Yuan Ching Road,"[""Chinese""]",1.325647640613127,103.72529718442104,https://d1sag4ddilekf6.cloudfront.net/compressed/merchants/4-CZDUDGL1RANBC6/hero/b0cf7024458e471b9cd50d884eba769e_1587119961287584249.jpg,4.6,"[1.325647640613127, 103.72529718442104]",3,3
122,Lao Er Bak Kut Teh,Lao Er Bak Kut Teh - Superbowl Jurong,"[""Chinese""]",1.3260887,103.72482241,https://d1sag4ddilekf6.cloudfront.net/compressed/merchants/4-CZDKN3LZCXTYJX/hero/cc7383ba132444288302ecac87e02a7b_1587106701172437663.jpeg,4.3,"[1.3260887, 103.72482241]",3,3
123,Jia Xiang Mala Hotpot 家乡麻辣香锅,Jia Xiang Mala Hotpot 家乡麻辣香锅 - Jurong,"[""Chinese"", ""Noodles"", ""Local"", ""Asian""]",1.3342296,103.7221163,https://d1sag4ddilekf6.cloudfront.net/compressed/merchants/4-CZBXVLE2N7NZVN/hero/904c25981f7841a89490524e586603ad_1621518533139384338.png,4.3,"[1.3342296, 103.7221163]",3,3
124,Al Afrida,Al Afrida - Yung Kuang Road,"[""Indian"", ""Chicken""]",1.3319674,103.72305255,https://d1sag4ddilekf6.cloudfront.net/compressed/merchants/4-CYMCJ7WFMF6AA6/hero/2e11690032064dcb8196f48721881546_1561693977869023569.jpeg,3.6,"[1.3319674, 103.72305255]",3,3
125,Unicuz Chinese Cuisine 宏缘美食馆,Unicuz Chinese Cuisine 宏缘美食馆 麻辣香锅 - Yuan Ching Road,"[""Asian"", ""Chinese"", ""Singaporean""]",1.3256819846612369,103.7254974,https://d1sag4ddilekf6.cloudfront.net/compressed/merchants/4-C2C1MCEHEKVVWA/hero/67c0f6c0db394c3387bea01639f3393e_1605758887335870578.jpg,4.6,"[1.3256819846612369, 103.7254974]",3,3
126,Chicken Box,Chicken Box - Taman Jurong Market & Food Centre [#03-171],"[""Western"", ""Seafood"", ""Meat""]",1.3345743,103.72139350520791,https://d1sag4ddilekf6.cloudfront.net/compressed/merchants/4-C2AHV2MDTNXFG2/hero/9c134c964f2f400b9bb8ffd0aece0e2e_1600853038668921610.jpeg,3.9,"[1.3345743, 103.72139350520791]",3,3
127,Empress Pot,Empress Pot - Yung Sheng Road,"[""Thai""]",1.3345634325989266,103.72175757998468,https://d1sag4ddilekf6.cloudfront.net/compressed/merchants/4-CYN1J3KTEEKACE/hero/68f2b9493602421798ae31d04c7360b9_1611889596415496331.jpeg,4.4,"[1.3345634325989266, 103.72175757998468]",3,3
128,Icecream Man And Friends,Icecream Man And Friends - Taman Jurong Shopping Centre,"[""Dessert""]",1.3346458,103.720985,https://d1sag4ddilekf6.cloudfront.net/compressed/merchants/SGDD10261/hero/upload-photo-Hero_Photo_5781c262034b495eba0e5b5290f6c1a0_1556607016813087564.jpeg,4.4,"[1.3346458, 103.720985]",3,3
129,Cactus 1,Cactus 1 - Mini Restaurant 8,"[""Local"", ""BBQ"", ""Korean""]",1.3256283,103.72550480666666,https://d1sag4ddilekf6.cloudfront.net/compressed/merchants/4-CYMFLTAKAUJXN6/hero/021d2b8a5cca4ec0a2b4541b8e7a82ce_1562036096851688045.jpeg,4.3,"[1.3256283, 103.72550480666666]",3,3
130,Yang Yi Yong Tau Foo,Yang Yi Yong Tau Foo - Taman Jurong Shopping Centre,"[""Convenience"", ""Local"", ""Singaporean"", ""Asian""]",1.335121442165658,103.72108122646024,https://d1sag4ddilekf6.cloudfront.net/compressed/merchants/4-C2LYGBVEKCKFRX/hero/cd9a46a6341648e9a9d35476d1d41aed_1615530644615127146.jpg,5.0,"[1.335121442165658, 103.72108122646024]",3,3
131,Boss Bar & Kitchen,Boss Bar & Kitchen - Superbowl Jurong,"[""Western""]",1.326139559,103.7249225,https://d1sag4ddilekf6.cloudfront.net/compressed/merchants/4-C2T2GNUYBE3DLX/hero/3c9193abb45d44259d152365cf4eef90_1621833235193803462.jpg,,"[1.326139559, 103.7249225]",3,3
132,Boon Lay Power Nasi Lemak Pte Ltd,Boon Lay Power Nasi Lemak Pte Ltd - Jurong Theatre,"[""Local""]",1.334241281506138,103.72240251778248,https://d1sag4ddilekf6.cloudfront.net/compressed/merchants/4-CYXVGPTWUF6VJ2/hero/27e10f460de444058f6184bd1b9eaaca_1610172529437141556.jpeg,4.3,"[1.334241281506138, 103.72240251778248]",3,3
133,Five Star Fast Food,Five Star Fast Food - Taman Jurong Market and Food Centre [#02-101],"[""Local"", ""Asian"", ""Fast Food"", ""Indian"", ""Muslim""]",1.3346229074535283,103.7215004,https://d1sag4ddilekf6.cloudfront.net/compressed/merchants/SGDD10200/hero/upload-photo-Hero_Photo_cec07c4501ea482d98ae60dcabba654e_1555900568047887971.jpeg,3.6,"[1.3346229074535283, 103.7215004]",3,3
134,Shell Select,Shell Select - Jalan Ahmad Ibrahim,"[""Groceries"", ""Mart"", ""Convenience""]",1.3235630500000002,103.721826,https://d1sag4ddilekf6.cloudfront.net/Merchants/4-CZCVVACJHCAYVT/photos_optimized/d766b533919849639f31f1936e538421_1597593199843707774.jpeg,4.2,"[1.3235630500000002, 103.721826]",3,3
135,Niu B Mianguan,Niu B Mianguan - Jurong Theatre,"[""Noodles"", ""Chinese"", ""Snack"", ""Same Prices In-Store""]",1.334296243514964,103.7222166,https://d1sag4ddilekf6.cloudfront.net/compressed/merchants/4-CYTKLXETNJNDNX/hero/75r-24bits-100kb-b9dd9330ac26f9a26c7643d351e5ee9baaffeeaf58dec52437e01aef769eebe2-4f2286f5cef7466d81a61bafa5654d3c_1564027286255022975.jpeg,4.2,"[1.334296243514964, 103.7222166]",3,3
136,Rong Kee Roasted Delights,Rong Kee Roasted Delights 榮記燒腊 - Jurong Theatre,"[""Chinese"", ""Local"", ""BBQ""]",1.334353,103.7221748,https://d1sag4ddilekf6.cloudfront.net/compressed/merchants/SGDD11998/hero/3cb831bc99604cf79a7599129fb06621_1559052698649715811.jpeg,4.0,"[1.334353, 103.7221748]",3,3
137,Cheers (FairPrice Xpress) @ Esso,Cheers (FairPrice Xpress) @ Esso - Jalan Ahmad Ibrahim,"[""Mart""]",1.32485,103.724375,https://d1sag4ddilekf6.cloudfront.net/compressed/merchants/4-C2LCGNTTPGMHDE/hero/347235c0260c41ef9428811cb874433d_1621875391053922442.jpg,4.2,"[1.32485, 103.724375]",3,3
138,Kotobuki Japanese Restaurant,Kotobuki Japanese Restaurant - Yuan Ching Road,"[""Japanese""]",1.3257562,103.72498166666668,https://d1sag4ddilekf6.cloudfront.net/compressed/merchants/SGDD08173/hero/upload-photo-Hero_Photo_2821dbf96a1b4b6cadd4e9e23fc59b21_1554865914038696205.png,4.1,"[1.3257562, 103.72498166666668]",3,3
139,Taman Jurong Market & Food Centre,Taman Jurong Market & Food Centre,"[""Local"", ""Chinese"", ""Beverages"", ""Chicken"", ""Indian""]",1.3346163465516725,103.72150205,https://d1sag4ddilekf6.cloudfront.net/compressed/merchants/4-C2DCCGAVJ8N2CX/hero/b497855b36ae45c3bb8ac8e3106b8301_1609318638241484243.jpg,4.2,"[1.3346163465516725, 103.72150205]",3,3
140,Cafe 9,Cafe 9 - Tukang Innovation Drive,"[""Asian"", ""Beverages"", ""Chinese"", ""Singaporean""]",1.3231942,103.7152906,https://d1sag4ddilekf6.cloudfront.net/compressed/merchants/4-CZMAV6ABE2BZAT/hero/1908cf992f6d45a49b625291a3b06223_1596098153321521498.jpeg,5.0,"[1.3231942, 103.7152906]",3,3
141,Kombynation Co.,Kombynation Co. - Innovate 360,"[""Beverages"", ""Local""]",1.336098175136319,103.7137353,https://d1sag4ddilekf6.cloudfront.net/compressed/merchants/4-CZDJL3KTL6E2CX/hero/5250e26d8a104709b97af301c3afd8ed_1606980796114685032.png,5.0,"[1.336098175136319, 103.7137353]",3,3
142,Gelare,The Grumpy Bear - Safra Jurong,"[""Western"", ""Dessert"", ""Chicken""]",1.3351479,103.7061333,https://d1sag4ddilekf6.cloudfront.net/compressed/merchants/4-CY6ARADDJUVFE2/hero/780aebf9d16c4b09925a12054b1901f9_1593655353371955299.jpeg,3.6,"[1.3351479, 103.7061333]",3,3
143,Cai Ji Ke Kou Mian,Cai Ji Ke Kou Mian - Yung Sheng Road,"[""Asian"", ""Chinese"", ""Noodles"", ""Singaporean""]",1.334501,103.721349,https://d1sag4ddilekf6.cloudfront.net/compressed/merchants/4-C2NDVLLAV3ECGJ/hero/f23584daa58e420386c5ade3da035d37_1619421018850562197.jpeg,2.9,"[1.334501, 103.721349]",3,3
144,Xin Sheng Ngoh Hiong Prawn Cracker,Xin Sheng Ngoh Hiong Prawn Cracker - Taman Jurong Market & Food Centre [#03-163],"[""Local"", ""Chinese""]",1.3345989,103.7215517,https://d1sag4ddilekf6.cloudfront.net/compressed/merchants/4-CY6ETPNXEEM3SA/hero/eefdc34e0a334d8aaa707b179c146c75_1578483597499085332.jpg,3.6,"[1.3345989, 103.7215517]",3,3
145,The Noodle House,The Noodle House - Taman Jurong,"[""Local"", ""Asian"", ""Chinese""]",1.3346558333333334,103.7209347,https://d1sag4ddilekf6.cloudfront.net/compressed/merchants/SGDD01199/hero/upload-photo-Hero_Photo_17b2bae5ac84490887a3b97a1d175da9_1555305457639458262.jpeg,4.1,"[1.3346558333333334, 103.7209347]",3,3
146,Le Satay,Le Satay - Jurong Theatre,"[""Local"", ""Islandwide Delivery""]",1.3343585666666666,103.7221802,https://d1sag4ddilekf6.cloudfront.net/compressed/merchants/4-CYLXGECBN6JCGA/hero/f558f8131d724082bc0376656657a7fb_1560917866566721300.jpeg,4.5,"[1.3343585666666666, 103.7221802]",3,3
147,ButterNut,ButterNut - Taman Jurong Market & Food Centre [#02-108],"[""Western"", ""Pizza"", ""Halal"", ""Italian"", ""Islandwide Delivery""]",1.3344967,103.7213801,https://d1sag4ddilekf6.cloudfront.net/compressed/merchants/SGDD02811/hero/upload-photo-Hero_Photo_a20597a8b76748099475c130845b79c3_1557110486278196130.jpeg,4.6,"[1.3344967, 103.7213801]",3,3
148,Chi Huo,Chi Huo - Taman Jurong Market and Food Centre [#03-179],"[""Local"", ""Chicken"", ""Asian"", ""Chinese""]",1.334647375,103.7215168,https://d1sag4ddilekf6.cloudfront.net/compressed/merchants/4-CZCFFB6FSAXYTA/hero/30a4928de8b7409491724cfa5d2572a6_1603514446815099252.jpeg,4.7,"[1.334647375, 103.7215168]",3,3
149,Shun Xing BBQ,Shun Xing BBQ - Yuan Ching Road,"[""BBQ"", ""Local"", ""Singaporean""]",1.325920027948163,103.72508998357536,https://d1sag4ddilekf6.cloudfront.net/compressed/merchants/4-C2BXJ6VAMABJR2/hero/430a02aabb164477bf2a5ab939285241_1603447240670305607.jpg,4.0,"[1.325920027948163, 103.72508998357536]",3,3
150,399 Kitchen,399 Kitchen - Taman Jurong,"[""Local"", ""Chinese"", ""Seafood""]",1.33508255,103.72017291270998,https://d1sag4ddilekf6.cloudfront.net/compressed/merchants/4-CZDTGBVBAJKGFE/hero/434d2144f0de47539cf3bda939c202e7_1587030644334932946.jpg,4.0,"[1.33508255, 103.72017291270998]",3,3
151,Kook Kai Thaifood,Kook Kai Thaifood - Yuan Ching Road,"[""Thai""]",1.3254748,103.7252471,https://d1sag4ddilekf6.cloudfront.net/compressed/merchants/4-C2UEG7TGEFW3VE/hero/0e3e265fc3ce44f8aaf52b5d03b50fb7_1622443822813930439.jpeg,,"[1.3254748, 103.7252471]",3,3
152,Thicc Milkshakes,Thicc Milkshakes - SAFRA Jurong,"[""Beverages""]",1.33516996,103.7060007,https://d1sag4ddilekf6.cloudfront.net/compressed/merchants/4-C2EULGCUN3AWHA/hero/377353f502a0467baa8895866b67b378_1609208331399476864.jpeg,3.0,"[1.33516996, 103.7060007]",3,3
153,Pancake,Pancake - Yung Sheng Road,"[""Asian"", ""Breakfast & Brunch"", ""Chinese"", ""Dessert"", ""Kids Friendly""]",1.334501,103.721349,https://d1sag4ddilekf6.cloudfront.net/compressed/merchants/4-C2LHMB32A4MGLE/hero/4b0bc95d051c4b4d81db72caa5784aab_1614758738161851149.jpg,3.0,"[1.334501, 103.721349]",3,3
154,Lao Hung Jia Chicken Rice,Lao Hung Jia Chicken Rice - Yung Sheng Road @ Taman Jurong Market and Food Centre [#03-154],"[""Chinese"", ""Same Prices In-Store""]",1.334633650874622,103.7214822246213,https://d1sag4ddilekf6.cloudfront.net/compressed/merchants/SGDD00755/hero/1519105814597-w550-f3.jpg,4.1,"[1.334633650874622, 103.7214822246213]",3,3
155,Ke Kou Duck,Ke Kou Duck - Jurong Leisure Complex,"[""Chinese"", ""Noodles""]",1.3256568449485877,103.7254993,https://d1sag4ddilekf6.cloudfront.net/compressed/merchants/4-CZEUTCAFRBKVNX/hero/582b0384a48642ae87c7cdd72113cf96_1599738695276254817.jpeg,4.6,"[1.3256568449485877, 103.7254993]",3,3
156,Can't Stop Eating Toast,Can't Stop Eating Toast - Taman Jurong Market & Food Centre [#02-59],"[""Beverages"", ""Breakfast & Brunch"", ""Sandwiches"", ""Same Prices In-Store"", ""Kids Friendly""]",1.334964957472308,103.7217484235294,https://d1sag4ddilekf6.cloudfront.net/compressed/merchants/SGDD12253/hero/30aba809ba284ba4917132d34357fe5f_1572318520333035241.jpeg,4.6,"[1.334964957472308, 103.7217484235294]",3,3
157,Haris Sharif Restaurant,Haris Sharif Restaurant - Yung Sheng Road,"[""Local"", ""Halal"", ""Asian"", ""Indian""]",1.3343526,103.722161,https://d1sag4ddilekf6.cloudfront.net/compressed/merchants/4-CZKYVYTYN74TEE/hero/c162a291e18c4c188017a694b0a2fef6_1593596059813834170.jpeg,4.1,"[1.3343526, 103.722161]",3,3
158,Siam Wok,Siam Wok - Jurong Theatre,"[""Thai"", ""Asian""]",1.3343136,103.7221532,https://d1sag4ddilekf6.cloudfront.net/compressed/merchants/4-CY2FEXWWG8DGTA/hero/7e268320118b4ed5bd41a3a6ef5a1615_1570690349893222678.jpeg,4.0,"[1.3343136, 103.7221532]",3,3
159,Volk,VOLK (Taman Jurong Hawker),"[""Korean"", ""Singaporean"", ""Japanese"", ""Salad""]",1.3345604,103.72136272,https://d1sag4ddilekf6.cloudfront.net/compressed/merchants/4-C2JTGEN2NVDAEJ/hero/61099eac02fb45aaabb3896a65fb2bf6_1611740093478889458.jpeg,4.1,"[1.3345604, 103.72136272]",3,3
160,Seafood Fish Soup,Seafood Fish Soup - Taman Jurong Market & Food Centre [#02-102],"[""Asian"", ""Chinese"", ""Seafood""]",1.3345753,103.72150121,https://d1sag4ddilekf6.cloudfront.net/compressed/merchants/4-CZEBHF6TTNTZJJ/hero/b022e8db45a54e7096e31f82dddf66fe_1611715483143770512.jpeg,4.2,"[1.3345753, 103.72150121]",3,3
161,Xi Yan Seafood Restaurant,Xi Yan Seafood Restaurant - The Village @ Jurong Hill,"[""Chinese""]",1.3209677,103.7088738814425,https://d1sag4ddilekf6.cloudfront.net/compressed/merchants/4-C2BJJKCECYEACE/hero/2cba91331ab14544bb16c6b9031e2cad_1610014458060427041.jpeg,2.5,"[1.3209677, 103.7088738814425]",3,3
162,IFruit,IFruit - Taman Jurong Shopping Centre,"[""Dessert"", ""Beverages""]",1.33467234,103.7209567,https://d1sag4ddilekf6.cloudfront.net/compressed/merchants/SGDD07516/hero/c1491e7b6eda49e9990a30ce69bb4395_1579061213270846741.jpeg,4.5,"[1.33467234, 103.7209567]",3,3
163,McDonald's,McDonald's - Jurong Bowl,"[""Chicken"", ""Fast Food"", ""Halal"", ""Burger""]",1.3264148,103.72467911243436,https://d1sag4ddilekf6.cloudfront.net/compressed/merchants/SGDD04923/hero/f969d238f3ca4875ae6eb4d00ae09445_1622082323163201360.jpeg,4.4,"[1.3264148, 103.72467911243436]",3,3
164,Japanese & Korean,Japanese & Korean - Jurong Theatre,"[""Japanese"", ""Korean"", ""Seafood""]",1.3343158,103.72214621997158,https://d1sag4ddilekf6.cloudfront.net/compressed/merchants/4-CYLTMAKZN4LWE2/hero/80797eb30033428dbc2a5e5d1fdb0cd3_1560137737631781013.jpeg,4.1,"[1.3343158, 103.72214621997158]",3,3
165,Fu Man Ji Hai Nan Ji Fan,Fu Man Ji Hai Nan Ji Fan - Taman Jurong Market And Food Centre [#02-87],"[""Asian"", ""Chinese""]",1.3345963751198917,103.7214876875,https://d1sag4ddilekf6.cloudfront.net/compressed/merchants/SGDD09741/hero/upload-photo-Hero_Photo_c69f23b472684fd0882df9f0e400c282_1557760570157456934.jpeg,4.5,"[1.3345963751198917, 103.7214876875]",3,3
166,RONGJI FISH SOUP Taman Jurong Shopping Centre,RONGJI FISH SOUP - Taman Jurong Shopping Centre,"[""Chinese"", ""Asian"", ""Chicken""]",1.3350849,103.72035838065744,https://d1sag4ddilekf6.cloudfront.net/compressed/merchants/4-CZDVUF3ZVT63GT/hero/72b95cd1da2a47b6b70e7c22869b0fbf_1587289739955064315.jpg,3.9,"[1.3350849, 103.72035838065744]",3,3
167,Taman Jurong Food Corner Pte Ltd,Taman Jurong Food Corner Pte Ltd - Yuan Ching Road,"[""Asian"", ""Dessert"", ""Dim Sum"", ""Local"", ""Snack""]",1.32559881,103.7255503,https://d1sag4ddilekf6.cloudfront.net/compressed/merchants/4-C2AGTJ3BCP2CFE/hero/8e84241f981b44af9d61ac31a97e5827_1600682321300516662.jpg,3.8,"[1.32559881, 103.7255503]",3,3
168,Yong Fa Pig's Organ Soup,Yong Fa Pig's Organ Soup - Taman Jurong Shopping Centre,"[""Local"", ""Singaporean"", ""Soup""]",1.33515099203305,103.72033000189036,https://d1sag4ddilekf6.cloudfront.net/compressed/merchants/4-C2MTVVCUNRNJGA/hero/5600470b73074df398ea5a063b024682_1617094851768951754.jpg,4.3,"[1.33515099203305, 103.72033000189036]",3,3
169,Mama Patisserie,Mama Patisserie - International Road,"[""Bakery"", ""Chicken"", ""Halal"", ""Cake"", ""Bread""]",1.3294761,103.7112943,https://d1sag4ddilekf6.cloudfront.net/compressed/merchants/4-CZJBJGMZEYJFKE/hero/f0b6b3e849cb43dd8812a096bdc92b63_1590141979781385763.jpg,4.6,"[1.3294761, 103.7112943]",3,3
170,Pasta Glory,Pasta Glory - SAFRA Jurong,"[""Pasta""]",1.3351361,103.7060736,https://d1sag4ddilekf6.cloudfront.net/compressed/merchants/4-C2EULGCUNKMZJ2/hero/eb327566df0a4d99a5570607eb8c501b_1609215733939981653.jpeg,3.0,"[1.3351361, 103.7060736]",3,3
171,Kintamani BBQ Seafood,Kintamani BBQ Seafood - Taman Jurong Market And Food Centre,"[""Asian"", ""Chinese"", ""Kids Friendly"", ""Local"", ""Seafood""]",1.334501,103.721349,https://d1sag4ddilekf6.cloudfront.net/compressed/merchants/4-C2TYSEUXA72HVX/hero/e3783ac3299a4b6ca6740fa359926903_1621579234181600319.jpg,5.0,"[1.334501, 103.721349]",3,3
172,Leng Huat Fishball Noodle Laksa,Leng Huat Fishball Noodle Laksa - Taman Jurong Market & Food Centre [#02-89],"[""Local"", ""Asian"", ""Noodles"", ""Same Prices In-Store""]",1.3346248,103.721494,https://d1sag4ddilekf6.cloudfront.net/compressed/merchants/4-CZEUTX3FR7AGNX/hero/b9d8ff42b8c54e689c5f619c155dd5ae_1589185330136289534.jpg,4.4,"[1.3346248, 103.721494]",3,3
173,Yeh Lai Siang Coffee,Yeh Lai Siang Coffee - Taman Jurong Market & Food Centre [#02-117],"[""Beverages"", ""Breakfast & Brunch"", ""Coffee"", ""Local"", ""Tea""]",1.334675,103.7214954,https://d1sag4ddilekf6.cloudfront.net/compressed/merchants/4-CZEANY3AJ742NA/hero/b14a4e9efc254599b375550da375bca3_1588142669778741674.jpeg,4.6,"[1.334675, 103.7214954]",3,3
174,Devil's Kitchen,Devil's Kitchen - Superbowl Jurong,"[""Pasta"", ""Western""]",1.3259925578858227,103.72483988,https://d1sag4ddilekf6.cloudfront.net/compressed/merchants/4-CYMWFCAHBENKLN/hero/73e45c0ad0ce4a07b6eb8d91816853b2_1559294091865880776.jpeg,4.5,"[1.3259925578858227, 103.72483988]",3,3
175,Big Boss Lok Lok,Big Boss Lok Lok - Jurong Theatre,"[""Asian"", ""BBQ"", ""Kids Friendly"", ""Local"", ""Malaysian""]",1.33413,103.72219,https://d1sag4ddilekf6.cloudfront.net/compressed/merchants/4-C2NYEGCBSBNGLE/hero/9d6033dcf49f491ea2404cdda4374c5d_1621331673784137398.jpeg,5.0,"[1.33413, 103.72219]",3,3
176,Wang Heng Seafood,Wang Heng Seafood - Jurong Theatre,"[""Local"", ""Asian"", ""Seafood""]",1.33432645,103.7221966,https://d1sag4ddilekf6.cloudfront.net/compressed/merchants/4-CZD2TFAGTCJKAJ/hero/77bccb36f9f44a97be0a2eeafda93655_1599445875545782067.jpeg,4.3,"[1.33432645, 103.7221966]",3,3
177,Yaseen Briyani Indian Muslim Food,Yaseen Briyani Indian Muslim Food - Yung Sheng Road,"[""Indian""]",1.334624348,103.7213468,https://d1sag4ddilekf6.cloudfront.net/compressed/merchants/4-C2NDTPVYCXTAEX/hero/1d3930189f664039a1e35497ce162771_1618383655216498287.jpg,3.0,"[1.334624348, 103.7213468]",3,3
178,The Seafood Market Place By Song Fish,The Seafood Market Place By Song Fish - Fishery Port Road [Islandwide Delivery],"[""Groceries"", ""Seafood"", ""Frozen Food"", ""Mart""]",1.3117545,103.7242922,https://d1sag4ddilekf6.cloudfront.net/compressed/merchants/4-C2NJAEVJDBKVTA/hero/a280d4ab32124925a2e9cf6f530e0bb8_1620021634178129767.jpeg,5.0,"[1.3117545, 103.7242922]",3,3
179,鑫味美食 Xin Wei,鑫味美食 Xin Wei - Yuan Ching Road,"[""Asian"", ""Chinese"", ""Local""]",1.3254748,103.7252471,https://d1sag4ddilekf6.cloudfront.net/compressed/merchants/4-C2NTAECECVBGRE/hero/c9824d36b4334c9cae47e2abdb2b2b46_1620373043806107671.jpeg,5.0,"[1.3254748, 103.7252471]",3,3
180,Jack's Place,Jack's Place - Safra Jurong Club,"[""Same Prices In-Store"", ""Western"", ""Kids Friendly"", ""Salad""]",1.3351662019416457,103.7059527,https://d1sag4ddilekf6.cloudfront.net/compressed/merchants/4-CZABTXACJZDFEE/hero/2be75d14356a4af3b43bf1b0f2ab4ae6_1587381112459379652.jpeg,4.4,"[1.3351662019416457, 103.7059527]",3,3
181,KFC,KFC - Yung Ho Road,"[""Halal"", ""Fast Food"", ""Western"", ""Burger"", ""Chicken""]",1.3263399,103.7238248,https://d1sag4ddilekf6.cloudfront.net/compressed/merchants/4-CY3TDGKJTT51SA/hero/c220cae4d0f6471fabc5cd4563081b25_1598860406323636716.jpeg,4.2,"[1.3263399, 103.7238248]",3,3
182,Manwu Satay Loklok,Manwu Satay Loklok - Yung Sheng Road,"[""BBQ""]",1.334501,103.721349,https://d1sag4ddilekf6.cloudfront.net/compressed/merchants/4-C2JWAKCFE7C2TJ/hero/759c7ad0df37466d98a30c5d6a17eeef_1611309764022527553.jpeg,,"[1.334501, 103.721349]",3,3
