Unnamed: 0,name,address,cuisine,lat,lon,image_url,rating,coordinates,square_i,square_j
580,Prata Alley,Prata Alley - Clementi Avenue 3[Islandwide Delivery],"[""Noodles"", ""Western"", ""Local"", ""Indian"", ""Islandwide Delivery""]",1.3121373,103.7651698,https://d1sag4ddilekf6.cloudfront.net/compressed/merchants/SGDD00917/hero/a421e3a0e4410387bbf66f2a546b3554-w550-bd.jpg,4.4,"[1.3121373, 103.7651698]",3,5
588,Bober Tea,Bober Tea - Clementi Avenue 3 ,"[""Bubble Tea"", ""Coffee"", ""Tea"", ""Islandwide Delivery""]",1.313867,103.764387,https://d1sag4ddilekf6.cloudfront.net/compressed/merchants/4-C2CVL24URZD3LX/hero/a83bae19cf5d438ebf3fa874f646a6cc_1605265517971348827.jpeg,4.6,"[1.313867, 103.764387]",3,5
617,Let's Eat,Boleh Boleh - The Clementi Mall [Islandwide Delivery],"[""Local"", ""Noodles""]",1.3150839054704164,103.76470666204062,https://d1sag4ddilekf6.cloudfront.net/compressed/merchants/4-CZDDC36CRXUAKA/hero/0d2de52a769747c3859306ce4cf20f69_1614242216062123789.jpeg,3.7,"[1.3150839054704164, 103.76470666204062]",3,5
634,The Meatery,The Meatery - Sunset Way [Islandwide Delivery],"[""Mart"", ""Frozen Food"", ""Fresh Produce""]",1.323462,103.767902,https://d1sag4ddilekf6.cloudfront.net/compressed/merchants/4-C2LDCJ62NGCBRE/hero/3439d56531dd4f65ac76335704b3e1eb_1615220310666191308.png,5.0,"[1.323462, 103.767902]",3,5
636,Common Grill,Common Grill - Clementi Ave 4 [Islandwide Delivery],"[""Western"", ""Pasta"", ""Chicken"", ""Seafood"", ""Islandwide Delivery""]",1.3209372518238107,103.76704224470228,https://d1sag4ddilekf6.cloudfront.net/compressed/merchants/SGDD11806/hero/d166473fae6b4c4a8689c7504d9381d7_1621507682223945413.jpeg,4.5,"[1.3209372518238107, 103.76704224470228]",3,5
644,Mai Xiang Yuan,Mai Xiang Yuan - Ayer Rajah Food Centre [Stall 10] [Islandwide Delivery],"[""BBQ"", ""Chicken"", ""Chinese""]",1.3120129,103.7597832,https://d1sag4ddilekf6.cloudfront.net/compressed/merchants/4-CZDWR7DFUGDZBA/hero/847640c91418496cb190dbdc82fa6c02_1587377469505503295.jpg,4.3,"[1.3120129, 103.7597832]",3,5
699,D'Yoma Coffee,D'Yoma Coffee - Clementi Meadows ,"[""Coffee & Tea"", ""Mart"", ""Roasted Coffee Beans"", ""Islandwide Delivery""]",1.32147,103.76587,https://d1sag4ddilekf6.cloudfront.net/compressed/merchants/4-C2KKJ2LAN2L3GN/hero/71870cf18b3f481d89a47030565a9212_1613728885175174866.jpeg,5.0,"[1.32147, 103.76587]",3,5
700,Satay Power 6,Satay Power 6 - West Coast Drive ,"[""Asian"", ""Local"", ""Malaysian"", ""Islandwide Delivery""]",1.3118343624930024,103.75993638356456,https://d1sag4ddilekf6.cloudfront.net/compressed/merchants/4-C2NUJ4CFAJK2R2/hero/bf1dfaed45ea41b9bb05002b6634b7b7_1619150345576612385.jpeg,,"[1.3118343624930024, 103.75993638356456]",3,5
705,Chop.steak western cuisine,Chop.steak western cuisine - Clementi Ave 2[Islandwide Delivery],"[""Pasta"", ""Western"", ""Islandwide Delivery""]",1.314713,103.77106033163756,https://d1sag4ddilekf6.cloudfront.net/compressed/merchants/SGDD07978/hero/6e5beae05a564b4c91a8505844bdae5e_1570623047678405614.jpeg,4.4,"[1.314713, 103.77106033163756]",3,5
1048,Tokyo Grilled Seafood,Tokyo BBQ Seafood - Ayer Rajah Food Centre [Islandwide Delivery],"[""Asian"", ""BBQ"", ""Islandwide Delivery""]",1.31199595,103.75974838628667,https://d1sag4ddilekf6.cloudfront.net/compressed/merchants/4-CZN1UCKVGJXVNX/hero/eddc8124d64140f88ca8b2b894f4bec3_1600659238396576392.jpeg,4.2,"[1.31199595, 103.75974838628667]",3,5
1051,Sichuan Tianfu Restaurant,"Sichuan Tianfu Restaurant - Grantral Mall, Clementi [Islandwide Delivery]","[""Chinese"", ""Islandwide Delivery""]",1.314512,103.76509431685857,https://d1sag4ddilekf6.cloudfront.net/compressed/merchants/4-CYNTLZKHNAMFKA/hero/83813f94394e4258ade0c1195ca6e65e_1563165607477195884.jpeg,3.9,"[1.314512, 103.76509431685857]",3,5
1074,House of Nasi Ler-Mak,House of Nasi Ler-Mak - West Coast Drive [Islandwide Delivery],"[""Indonesian"", ""Singaporean"", ""Noodles"", ""Same Prices In-Store"", ""Malaysian""]",1.31163819,103.7599538,https://d1sag4ddilekf6.cloudfront.net/compressed/merchants/4-C2D3GE2DGCEHEE/hero/c13abc55621248268127fcdd332869a0_1610341412985215617.jpeg,4.6,"[1.31163819, 103.7599538]",3,5
1128,Ikashah Halal Frozen Food,Ikashah Halal Frozen Food - Clementi Ave 2,"[""BBQ"", ""Chicken"", ""Breakfast & Brunch"", ""Same Prices In-Store"", ""Fried Chicken""]",1.314109,103.770598,https://d1sag4ddilekf6.cloudfront.net/compressed/merchants/4-C2LKJRCATKNVKA/hero/ffa590d37ab44750a063cc1e19a1c2c1_1614943840922881697.jpg,4.5,"[1.314109, 103.770598]",3,5
1164,Neue Mart,Neue Mart - Eng Kong Park,"[""Convenience"", ""Mart""]",1.3364559253804629,103.7682293698292,https://d1sag4ddilekf6.cloudfront.net/compressed/merchants/4-C2EWV3N1LXMWAJ/hero/0096fa6a049b495985a6228b788894bf_1609471629336791114.jpeg,5.0,"[1.3364559253804629, 103.7682293698292]",3,5
1193,Nature's Green,Nature's Green - Clementi Ave 3,"[""Mart"", ""Health & Wellness"", ""Wellness""]",1.31359,103.76506,https://d1sag4ddilekf6.cloudfront.net/compressed/merchants/4-C2K1CUCKEZKXLT/hero/ff7a94e5f5a94603890a470fa5820476_1613780084622248636.jpeg,,"[1.31359, 103.76506]",3,5
1207,Seatobag,Seatobag - Clementi Street 11,"[""Mart"", ""Seafood"", ""Fresh & Frozen""]",1.3224344,103.7705539,https://d1sag4ddilekf6.cloudfront.net/compressed/merchants/4-C2DYTP6VN2XWNX/hero/d12450c04b4c465787aa5ef58d23cddd_1614683425872487133.jpeg,4.5,"[1.3224344, 103.7705539]",3,5
1238,Jinjja Chicken,Jinjja Chicken - Clementi [Islandwide Delivery],"[""Korean"", ""Halal"", ""Chicken"", ""Noodles"", ""Islandwide Delivery""]",1.3151645660400388,103.76458262,https://d1sag4ddilekf6.cloudfront.net/compressed/merchants/SGDD05644/hero/upload-photo-Hero_Photo_55c4cabd09874193b298aa854c20f6c4_1557126619090943956.jpeg,4.5,"[1.3151645660400388, 103.76458262]",3,5
1257,Geonbae,Geonbae - Logis Hub @ Clementi,"[""Alcohol"", ""Beverages"", ""Korean""]",1.3265818,103.7638091,https://d1sag4ddilekf6.cloudfront.net/compressed/merchants/4-C2LDGTEKSBJAE6/hero/5d354349bab846f6aaf3a9cb1ddcf018_1614390994806751808.jpeg,,"[1.3265818, 103.7638091]",3,5
1391,Xin De An Medical Hall,Xin De An Medical Hall - Sunset Way Residence,"[""Mart"", ""Health & Wellness"", ""Wellness""]",1.3224251266946183,103.77015406910344,https://d1sag4ddilekf6.cloudfront.net/compressed/merchants/4-CZLAAYKGRJXWT2/hero/4d66098600cc4c66a891cd47d0794e5d_1611567601910493459.jpg,,"[1.3224251266946183, 103.77015406910344]",3,5
1401,Seed & Co.,Seed & Co.,"[""Salad"", ""Mart""]",1.317072,103.778605,https://d1sag4ddilekf6.cloudfront.net/compressed/merchants/4-C2KBRGCCA7TCLX/hero/fb4110092f3f414ea8210ddc95e9c04a_1613994533428107802.jpeg,5.0,"[1.317072, 103.778605]",3,5
2299,The Roti Roll,The Roti Roll - 321 Clementi,"[""Asian"", ""Indian""]",1.3120122,103.76502,https://d1sag4ddilekf6.cloudfront.net/compressed/merchants/4-C2MTAEVKJYJBC2/hero/4a2e66f4cc134fd48aa6a8430e21de4d_1617072295252333297.jpeg,,"[1.3120122, 103.76502]",3,5
2303,A Poh Kitchen,A-Poh Kitchen - Clementi Shopping Centre,"[""Asian"", ""Seafood"", ""Halal""]",1.313502,103.77031970266648,https://d1sag4ddilekf6.cloudfront.net/compressed/merchants/4-CZDECBJ3HGLBCN/hero/08dc061f15f446cca0024b9e81466d7e_1611550453499461721.jpeg,4.5,"[1.313502, 103.77031970266648]",3,5
2308,Golden Rooster,Golden Rooster - Clementi Ave 3,"[""BBQ"", ""Chicken"", ""Convenience"", ""Fast Food"", ""Fried Chicken""]",1.3132526908770443,103.765763,https://d1sag4ddilekf6.cloudfront.net/compressed/merchants/4-C2J1GUCFVVKVT6/hero/5960c5198333425cada5030319207135_1617864483694796638.jpeg,4.4,"[1.3132526908770443, 103.765763]",3,5
2310,Little Myanmar,Little Myanmar - Clementi Ave 2,"[""Asian"", ""Salad"", ""Beverages"", ""Noodles""]",1.3135504467422698,103.7669401,https://d1sag4ddilekf6.cloudfront.net/compressed/merchants/4-CY2VUCDEBAN3FA/hero/add3ef21755341f78576934a99986264_1571470094872762888.jpeg,4.3,"[1.3135504467422698, 103.7669401]",3,5
2312,Abang by Pondok Abang,ABANG By Pondok Abang - Clementi 448 Market & Food Centre [Stall 03],"[""Asian"", ""Muslim"", ""Same Prices In-Store""]",1.3131918333333332,103.7647213,https://d1sag4ddilekf6.cloudfront.net/compressed/merchants/4-CYLCC4BEFE5WV6/hero/upload-photo-Hero_Photo_3bad5347419d47378267ee6da8a3e0ea_1556166847633367801.jpeg,4.5,"[1.3131918333333332, 103.7647213]",3,5
2319,Hong Kee Villa Satay Beehoon,Hong Kee Villa Satay Beehoon - Clementi 448 Market & Food Centre [Stall 135],"[""Asian"", ""Chinese"", ""Convenience""]",1.31354,103.7644428,https://d1sag4ddilekf6.cloudfront.net/compressed/merchants/4-CZDXRKWWRPBXTX/hero/4eb051a92cea422d87f069a9df9a698b_1618216829983821381.png,4.5,"[1.31354, 103.7644428]",3,5
2323,Da Jie Niang Dou Fu,Da Jie Niang Dou Fu - Clementi,"[""Chicken"", ""Chinese"", ""Noodles"", ""Halal"", ""Local""]",1.3144546707046714,103.7702285,https://d1sag4ddilekf6.cloudfront.net/compressed/merchants/SGDD01442/hero/3784b08268d44af79db309954a829a8f_1564541387177838709.jpeg,4.3,"[1.3144546707046714, 103.7702285]",3,5
2327,Holy Flavour Palace Mala Xiang Guo 圣味阁麻辣香锅,Holy Flavour Palace Mala Xiang Guo 圣味阁麻辣香锅 - Clementi Ave 3,"[""Asian"", ""Chicken"", ""Chinese"", ""Singaporean""]",1.3139176,103.7653643,https://d1sag4ddilekf6.cloudfront.net/compressed/merchants/4-C2DEJ2JAN8MKHE/hero/c90bdca85d234292857c16d3787861a1_1606446100779093220.jpg,5.0,"[1.3139176, 103.7653643]",3,5
2331,Hana Stall,Hana Stall - Ayer Rajah Food Centre [Stall 69],"[""Local""]",1.3116248,103.7598103,https://d1sag4ddilekf6.cloudfront.net/compressed/merchants/SGDD09063/hero/f404a04e558148e3bd9780ff68c541de_1583212039630073736.jpg,4.5,"[1.3116248, 103.7598103]",3,5
2333,2 Thumbs Up Hainanese Curry Rice,2 Thumbs Up Hainanese Curry Rice - Clementi Ave 3,"[""Asian"", ""Chicken"", ""Chinese""]",1.3139912137074563,103.7652701,https://d1sag4ddilekf6.cloudfront.net/compressed/merchants/4-CZD1CEUKTPKXKA/hero/dbd78c80245a4fe4aeeb7672484c1be5_1588652419381795442.png,4.1,"[1.3139912137074563, 103.7652701]",3,5
2345,352 Ban Mian And Fish Soup,352 Ban Mian And Fish Soup - Clementi Ave 2 Shopping Centre,"[""Chinese"", ""Soup"", ""Noodles""]",1.3146769,103.77104680813773,https://d1sag4ddilekf6.cloudfront.net/compressed/merchants/4-CZM2NABYT3LDLN/hero/f2da5df902214d8a8145c9d3e47fce12_1597893589407038043.jpeg,4.3,"[1.3146769, 103.77104680813773]",3,5
2348,Meet Nooodles 面面,Meet Noodles 面面 - Grantral Mall - Clementi,"[""Noodles"", ""Local"", ""Chinese""]",1.3142953,103.7651904191581,https://d1sag4ddilekf6.cloudfront.net/compressed/merchants/4-CZEFVXJDBGMKMA/hero/3d7d0f4a409f43448930be301fe6c0de_1588996790276445854.jpeg,4.1,"[1.3142953, 103.7651904191581]",3,5
2350,Saizeriya,Saizeriya - 321 Clementi,"[""Western""]",1.312023333333333,103.76507225,https://d1sag4ddilekf6.cloudfront.net/compressed/merchants/4-CZEAR6DJN76XVJ/hero/b5cdfcb0dc464d7385b0992337bd1c96_1615267337690040815.jpeg,4.5,"[1.312023333333333, 103.76507225]",3,5
2352,Domino's,Domino's - West Coast Drive,"[""Western"", ""Fast Food"", ""Pizza"", ""Halal"", ""Chicken""]",1.312239,103.759907,https://d1sag4ddilekf6.cloudfront.net/compressed/merchants/SGDD09355/hero/74bfe5cbc40a4b78885f1c663c6b4d66_1620730384979469764.jpg,4.3,"[1.312239, 103.759907]",3,5
2354,Huang Tu Di Xi'An Delights 黄土地西安小吃,Huang Tu Di Xi'An Delights 黄土地西安小吃 - 321 Clementi Ave 3,"[""Chinese"", ""Noodles"", ""Islandwide Delivery""]",1.3122652756388726,103.76494736594778,https://d1sag4ddilekf6.cloudfront.net/compressed/merchants/4-CZJBJB3DNFXFJA/hero/466a57465a864dd9a3e0d6eac1c4238a_1591169422067578850.png,4.6,"[1.3122652756388726, 103.76494736594778]",3,5
2355,Face Ban Mian,Face Ban Mian - Clementi Ave 5,"[""Local"", ""Noodles"", ""Chinese""]",1.31486726,103.76690419220172,https://d1sag4ddilekf6.cloudfront.net/compressed/merchants/4-CY5WL24CJADAT6/hero/21501943beec4a5aaad2f83270cf0af4_1585211663850869840.jpeg,4.3,"[1.31486726, 103.76690419220172]",3,5
2357,1A Heritage,1A Heritage - Clementi Avenue 3,"[""Bakery & Cake"", ""Chinese"", ""Local"", ""Snack""]",1.31284914738323,103.765250653285,https://d1sag4ddilekf6.cloudfront.net/compressed/merchants/4-C2TKN35DMFVHJT/hero/2fbe89e3a83649a08502eec23feab8dc_1620980288761323000.jpeg,,"[1.31284914738323, 103.765250653285]",3,5
2359,Banmian,Banmian - Clementi 443,"[""Asian"", ""Chinese"", ""Noodles"", ""Porridge""]",1.3142383333333332,103.76382885,https://d1sag4ddilekf6.cloudfront.net/compressed/merchants/4-CZKCDCNBRVMKWE/hero/894d4dea271541cb92f82ad903d51248_1592218985830438271.jpg,4.4,"[1.3142383333333332, 103.76382885]",3,5
2362,Ching Hao Wei,Ching Hao Wei - Clementi Ave 3,"[""Chinese"", ""Seafood""]",1.3131873,103.7657555,https://d1sag4ddilekf6.cloudfront.net/compressed/merchants/4-CZDXJTBFMAU1HA/hero/a3c3ea02318842e9bb2bd70bfb642ea5_1587444029648208799.jpg,4.1,"[1.3131873, 103.7657555]",3,5
2364,Ann Chin Popiah,Ann Chin Popiah - Clementi Ave 3,"[""Local"", ""Chinese""]",1.3142822511730308,103.76375157034153,https://d1sag4ddilekf6.cloudfront.net/compressed/merchants/4-CZATPF3HL66TV2/hero/1767e448f8e84a559fb40df16963f098_1581401697778337430.png,4.8,"[1.3142822511730308, 103.76375157034153]",3,5
2369,Fatty Bom Bom,Fatty Bom Bom - Clementi Ave 5,"[""Western"", ""Halal""]",1.3153479736318303,103.76697095833516,https://d1sag4ddilekf6.cloudfront.net/compressed/merchants/4-C2L2PECHL7NVNT/hero/21cbd03134114fb6b7d5030576bc081c_1616831018567716399.jpeg,4.4,"[1.3153479736318303, 103.76697095833516]",3,5
2370,Haha Mala Hot Pot,Haha Mala Hot Pot - Clementi Ave 2,"[""Chicken"", ""Seafood"", ""Beverages"", ""Chinese""]",1.31355585,103.7669899,https://d1sag4ddilekf6.cloudfront.net/compressed/merchants/4-CY2VV2UACBUAVA/hero/0eaffe9be79144a7ab9e2038aa89f837_1571296223698762261.jpg,3.7,"[1.31355585, 103.7669899]",3,5
2375,Nexus Grill & Bento,Nexus Grill & Bento - Clementi Avenue 2,"[""Western"", ""Asian"", ""Local""]",1.3136687909174896,103.76705277262404,https://d1sag4ddilekf6.cloudfront.net/compressed/merchants/4-CYUJGTL2PF5YME/hero/75r-24bits-100kb-255cf9a11f7b81e1dc6fcd82bc9175e9c69628a6e4cdbf886a8f9996f7a05307-bba8f472c0f34cf9a49aa73479d5d3a1_1564130378186653655.jpeg,4.3,"[1.3136687909174896, 103.76705277262404]",3,5
2376,Big Mouth Ma La Hotpot,Big Mouth Ma La Hotpot - Clementi,"[""Chinese"", ""Seafood""]",1.3154720544799805,103.7669033,https://d1sag4ddilekf6.cloudfront.net/compressed/merchants/SGDD06349/hero/upload-photo-Hero_Photo_c8ca20f73af1420d981aa61ee99b4f93_1555035613306708247.jpeg,4.0,"[1.3154720544799805, 103.7669033]",3,5
2378,Unity,Unity - Clementi Mall,"[""Wellness"", ""Pharmacy"", ""Mart"", ""Health & Beauty"", ""Pharmacy/Health""]",1.31504648,103.7646246,https://d1sag4ddilekf6.cloudfront.net/compressed/merchants/4-CZJ1NNUHRFXVTJ/hero/c11bc18e401e4ff08bf63e868911e12e_1593420962701073782.jpeg,4.8,"[1.31504648, 103.7646246]",3,5
2379,Clementi 448 Teochew Fish Porridge,Clementi 448 Teochew Fish Porridge - Clementi 448 Market & Food Centre [Stall 41],"[""Chinese""]",1.313544,103.76455491798946,https://d1sag4ddilekf6.cloudfront.net/compressed/merchants/4-CY6TNA23CRDYRJ/hero/e0100a8577a24600bb703349538f65e6_1582601806107361650.jpeg,3.8,"[1.313544, 103.76455491798946]",3,5
2382,Clementi 448 Chicken Rice,Clementi 448 Chicken Rice - Clementi 448 Market & Food Centre [Stall 18],"[""Local"", ""Chinese"", ""Chicken""]",1.3136578,103.7645801,https://d1sag4ddilekf6.cloudfront.net/compressed/merchants/4-CYWWVX4BC2NZNN/hero/e79fb8b57dee437db97a1ba4331e2b44_1572717276987558457.jpeg,3.6,"[1.3136578, 103.7645801]",3,5
2386,Seafood @ Clementi,Seafood @ Clementi - Clementi Avenue 3,"[""Local"", ""Seafood"", ""Snack"", ""Islandwide Delivery""]",1.3136207,103.7643049,https://d1sag4ddilekf6.cloudfront.net/compressed/merchants/SGDD01215/hero/upload-photo-Hero_Photo_20aeea69ee0941e697be9422e6975da3_1555584964908090606.png,3.9,"[1.3136207, 103.7643049]",3,5
2392,Hua Zai Roasted Duck,Hua Zai Roasted Duck - 450 Clementi Ave 3,"[""Asian"", ""Chicken"", ""Chinese""]",1.3139397,103.7653347,https://d1sag4ddilekf6.cloudfront.net/compressed/merchants/4-C2DXCLK2NY2CVX/hero/1b83bcefc51e4a49a4d7d2cf11e5ee88_1619750653920372015.jpg,4.3,"[1.3139397, 103.7653347]",3,5
2393,Twelve Cupcakes,Twelve Cupcakes - The Clementi Mall,"[""Mart"", ""Snacks"", ""Dessert""]",1.3150834,103.7646421,https://d1sag4ddilekf6.cloudfront.net/compressed/merchants/4-CYN1J3LCUELGRA/hero/4dca6a29d819459bab83b76ade36add7_1559875291025721637.jpeg,4.4,"[1.3150834, 103.7646421]",3,5
2398,Pezzo,Pezzo - Clementi Mall,"[""Halal"", ""Pizza"", ""Seafood"", ""Chicken""]",1.3151134,103.76469316666667,https://d1sag4ddilekf6.cloudfront.net/compressed/merchants/SGDD01840/hero/9dde6e46c03e43e2b2fdb22d90c4ec88_1612163010468872100.jpeg,4.1,"[1.3151134, 103.76469316666667]",3,5
2401,SF Fruits & Juices,SF Fruits & Juices - The Clementi Mall,"[""Fruit"", ""Groceries"", ""Mart""]",1.3151339040540542,103.76468724,https://d1sag4ddilekf6.cloudfront.net/compressed/merchants/4-CZECGA3EC7DERA/hero/15f8723415a045539c6e860d515024a1_1619433785355162988.png,4.7,"[1.3151339040540542, 103.76468724]",3,5
2405,Guardian,Guardian - The Clementi Mall,"[""Mart"", ""Health & Wellness""]",1.3152138604581296,103.76473574484356,https://d1sag4ddilekf6.cloudfront.net/compressed/merchants/4-C2LDG6V1JY6UV6/hero/94f600515e3a4a2fb6af4b750cd516f5_1614412784016402367.jpeg,4.5,"[1.3152138604581296, 103.76473574484356]",3,5
2425,The Clementi Mall L1 and L3 - Mix & Match,The Clementi Mall L1 and L3 - Mix & Match,"[""Local"", ""Asian""]",1.315217161120309,103.7646315,https://d1sag4ddilekf6.cloudfront.net/compressed/merchants/4-C2T2MBWZSB3JGA/hero/b755a58c922d40b0802532d6205a8332_1621911925742788035.jpeg,4.3,"[1.315217161120309, 103.7646315]",3,5
2427,Daily Green,Daily Green - Clementi,"[""Vegetarian"", ""Local"", ""Asian"", ""Rice"", ""Noodles""]",1.3134215904356623,103.76323959765602,https://d1sag4ddilekf6.cloudfront.net/compressed/merchants/4-CYN2GYUVRJVFVN/hero/ef98ceefc3ae4a3fb386cbe0c460031b_1617214407320626450.jpg,4.6,"[1.3134215904356623, 103.76323959765602]",3,5
2431,Chon Sing Huat Cooked Food,Chon Sing Huat Cooked Food - Ayer Rajah Food Centre,"[""Chinese"", ""Local"", ""Asian""]",1.31166516,103.75961021691792,https://d1sag4ddilekf6.cloudfront.net/compressed/merchants/4-C2AHUBE2LTU2NJ/hero/b4caf2f7ff494b60bf699c1e48d5d3aa_1601692728484163164.jpeg,4.4,"[1.31166516, 103.75961021691792]",3,5
2433,Al Firdaus,Al-Firdaus Restaurant - Mr Tandoor - Ayer Rajah Food Centre [Stall 30],"[""Indian""]",1.3118321924913674,103.7597911637458,https://d1sag4ddilekf6.cloudfront.net/compressed/merchants/4-CZDKHCBTMF3XG6/hero/f9006b0db3634fa49489624fa3b2e306_1586938834181544169.jpg,3.5,"[1.3118321924913674, 103.7597911637458]",3,5
2436,Bee Cheng Hiang,Bee Cheng Hiang - Clementi Ave 3,"[""Mart"", ""Chinese"", ""Snacks"", ""Asian""]",1.3139968,103.7646623,https://d1sag4ddilekf6.cloudfront.net/compressed/merchants/SGDD10516/hero/f9755077ff7e4d6b8aa3919065b39b23_1586851476460279617.png,4.7,"[1.3139968, 103.7646623]",3,5
2438,Yes Natural,Yes Natural - Clementi Ave 3,"[""Groceries"", ""Mart"", ""Local"", ""Noodles""]",1.3137746,103.76316666666668,https://d1sag4ddilekf6.cloudfront.net/compressed/merchants/4-CZKKECCFJ33GDE/hero/9f3d5be4b20047058e448b189b36f2a6_1592982212465596676.jpeg,,"[1.3137746, 103.76316666666668]",3,5
2442,Shwe Kant Kaw Myanmar Cuisine,Shwe Kant Kaw Myanmar Cuisine - Clementi Ave 5,"[""Asian"", ""Salad""]",1.3148307,103.76688265,https://d1sag4ddilekf6.cloudfront.net/compressed/merchants/4-CZD2APLVNJ5DJT/hero/31a543da549746edb21bd6011bcfa9a3_1587803555953284401.jpg,4.4,"[1.3148307, 103.76688265]",3,5
2444,Unicuz Roasted Delights 宏缘美食馆 港式烧腊,Unicuz Roasted Delights 宏缘美食馆 港式烧腊 - Clementi Ave 3,"[""Asian"", ""Chicken"", ""Chinese"", ""Singaporean""]",1.3141869101933807,103.7636817,https://d1sag4ddilekf6.cloudfront.net/compressed/merchants/4-C2C1MCEHVJMACJ/hero/29c30ebe111f412b996b70ac9cc59791_1605758887976366732.jpg,3.3,"[1.3141869101933807, 103.7636817]",3,5
2447,Hoe Kee Hainanese Chicken Rice,Hoe Kee Hainanese Chicken Rice - West Coast Drive,"[""Asian"", ""Chicken"", ""Chinese"", ""Convenience""]",1.3122685452137284,103.75941629895998,https://d1sag4ddilekf6.cloudfront.net/compressed/merchants/4-C2D3EA6UCCEWBE/hero/7696336ae9f840ae90be114588653f34_1609934094746193335.jpeg,3.6,"[1.3122685452137284, 103.75941629895998]",3,5
2449,The Alley,The Alley - Clementi Towers,"[""Bubble Tea"", ""Beverages"", ""Boba Tea"", ""Tea"", ""Dessert""]",1.3148329,103.76470135146538,https://d1sag4ddilekf6.cloudfront.net/compressed/merchants/4-C2EHEEVCVEVWJT/hero/e41cbc0543264fe7ae81e662d85853c5_1610435377581736801.jpeg,4.4,"[1.3148329, 103.76470135146538]",3,5
2452,Osk Seafood,Osk Seafood - Clementi Ave 5,"[""Seafood"", ""Asian"", ""Local""]",1.3154655,103.7669028,https://d1sag4ddilekf6.cloudfront.net/compressed/merchants/SGDD07399/hero/8276f1068c8447e1b2e172c1267ca8cd_1580658118512758065.jpeg,4.4,"[1.3154655, 103.7669028]",3,5
2457,Eighteen Chefs,Eighteen Chefs - The Clementi Mall,"[""Pasta"", ""Western""]",1.3149793185444452,103.76439811709145,https://d1sag4ddilekf6.cloudfront.net/compressed/merchants/4-C2TVNGMXR74BNN/hero/578e04a471444289a48e5de228dec7da_1621313621526851385.jpeg,4.8,"[1.3149793185444452, 103.76439811709145]",3,5
2460,Xing Long Fish Soup,Xing Long Fish Soup - Clementi Ave 5,"[""Asian""]",1.317658,103.7688382,https://d1sag4ddilekf6.cloudfront.net/compressed/merchants/4-C2LVMEJWA6NAAT/hero/254ef2a82b934ddfb28fe06f485e9f8d_1615259113227878976.jpg,4.7,"[1.317658, 103.7688382]",3,5
2461,PizzaFace,PizzaFace - Ridgewood Close,"[""Pasta"", ""Italian"", ""Western"", ""Pizza""]",1.31677164,103.7790645,https://d1sag4ddilekf6.cloudfront.net/compressed/merchants/SGDD01841/hero/c0de4886ee4f219e26bee42b067ccf7b,4.5,"[1.31677164, 103.7790645]",3,5
2464,Soup Restaurant,Soup Restaurant - Clementi Mall,"[""Chicken"", ""Noodles"", ""Chinese""]",1.3151185333333333,103.7647777,https://d1sag4ddilekf6.cloudfront.net/compressed/merchants/SGDD09804/hero/fd5f887e787047cf994f5659e4082792_1578016124577353247.png,4.4,"[1.3151185333333333, 103.7647777]",3,5
2466,380 Nasi Lemak,380 Nasi Lemak - Clementi Ave 5,"[""Fried Chicken"", ""Local""]",1.3185866666666666,103.76750128,https://d1sag4ddilekf6.cloudfront.net/compressed/merchants/4-C2JDRUXCTK5AC2/hero/765f3ea5ee8a45cbb9b38185b534fc09_1610413691638878314.jpeg,4.5,"[1.3185866666666666, 103.76750128]",3,5
2467,Ha Jun Korean,Ha Jun Korean - The Clementi Mall,"[""Asian"", ""Korean""]",1.3150775615384616,103.76457241710452,https://d1sag4ddilekf6.cloudfront.net/compressed/merchants/4-C2DETAX3NVN2GE/hero/990a26cbbf60446faf9e31f964cfd1f2_1606480299739472253.jpg,4.1,"[1.3150775615384616, 103.76457241710452]",3,5
2472,EAT.,EAT. - The Clementi Mall,"[""Asian"", ""Noodles"", ""Local""]",1.3151183333333334,103.76464505,https://d1sag4ddilekf6.cloudfront.net/compressed/merchants/4-CZEHLAJ3ALDUCJ/hero/e4e28d12ba53455f9b240c4de2809bee_1591868136463972181.jpeg,4.0,"[1.3151183333333334, 103.76464505]",3,5
2475,Ho Kee Pau,Ho Kee Pau - The Clementi Mall,"[""Beverages"", ""Chinese"", ""Dim Sum""]",1.3151692708333331,103.7645727,https://d1sag4ddilekf6.cloudfront.net/compressed/merchants/4-CYXWVYMENBETTT/hero/24a44ee01fb64fa895dadbcd8536814d_1571809506627950614.jpeg,3.9,"[1.3151692708333331, 103.7645727]",3,5
2478,Crystal Jade Hong Kong Kitchen,Crystal Jade Hong Kong Kitchen - Clementi Mall,"[""Chinese"", ""Dim Sum"", ""Noodles"", ""Seafood""]",1.315217161120309,103.7646315,https://d1sag4ddilekf6.cloudfront.net/compressed/merchants/SGDD12274/hero/aef87a26b28146c8bc3a24e2dac8c5e8_1589176127765517621.jpeg,4.5,"[1.315217161120309, 103.7646315]",3,5
2480,Unkle Prata,Unkle Prata - 321 Clementi,"[""Breakfast & Brunch"", ""Indian"", ""Local""]",1.3120122,103.76502,https://d1sag4ddilekf6.cloudfront.net/compressed/merchants/4-C2MTAEVKJKWCPA/hero/358a104c5c5348c8ba8c9a572b002d3f_1617069916614285793.jpeg,,"[1.3120122, 103.76502]",3,5
2481,Sedap,Sedap - Clementi Ave 3,"[""Local"", ""Asian"", ""Noodles""]",1.3127593,103.7651366,https://d1sag4ddilekf6.cloudfront.net/compressed/merchants/4-CZEKBBE3NFUXGJ/hero/cf63953aeca9449ea2f3c4b1d5cee603_1594191954099421542.jpeg,4.1,"[1.3127593, 103.7651366]",3,5
2490,Asia Ghani Chicken Rice,Asia Ghani Chicken Rice - Clementi Ave 3,"[""Chicken"", ""Local"", ""Singaporean""]",1.31284914738323,103.765250653285,https://d1sag4ddilekf6.cloudfront.net/compressed/merchants/4-C2UBV3BHSALXL6/hero/a4e454dfb02c47d49acdc68b38200507_1622196427881583452.jpg,,"[1.31284914738323, 103.765250653285]",3,5
2492,Long Zhong Jiak Bbq,Long Zhong Jiak Bbq - Clementi Ave 2,"[""Local"", ""Seafood"", ""Beverages"", ""Salad""]",1.3135596,103.7669615,https://d1sag4ddilekf6.cloudfront.net/compressed/merchants/4-CY2VUFEBFCKKVA/hero/726f24465d3c4f9ca0321a483fefe904_1582592875094995455.jpeg,3.4,"[1.3135596, 103.7669615]",3,5
2495,Just Greens Vegetarian,Just Greens Vegetarian - Clementi,"[""Vegetarian"", ""Asian"", ""Noodles""]",1.3131644777777778,103.76579027,https://d1sag4ddilekf6.cloudfront.net/compressed/merchants/SGDD06583/hero/upload-photo-Hero_Photo_8a9e63465fb2420fad59e0fd4101db65_1554265085789179862.jpeg,4.0,"[1.3131644777777778, 103.76579027]",3,5
2497,123 Mart,123 Mart - Clementi Ave 2,"[""Alcohol"", ""Beverages"", ""Snack"", ""Mart""]",1.3137898887989792,103.77038469714432,https://d1sag4ddilekf6.cloudfront.net/compressed/merchants/4-C2MHLLCHLRMXTA/hero/3620cf53bb87415188f6a10bbec51605_1616752847603299618.jpg,5.0,"[1.3137898887989792, 103.77038469714432]",3,5
2500,K-Licious,K-Licious - The Clementi Mall,"[""Halal"", ""Healthy"", ""Korean""]",1.313658,103.765335,https://d1sag4ddilekf6.cloudfront.net/compressed/merchants/4-C2UFJ6DDEKAJG2/hero/67fd06986d4947cc958bd4c4613cecc7_1622604334712315072.jpeg,,"[1.313658, 103.765335]",3,5
2502,Da Jie Niang Dou Fu,Da Jie Niang Dou Fu - Clementi Avenue 2 Shopping Centre,"[""Chicken"", ""Chinese"", ""Halal"", ""Local""]",1.31441,103.77051,https://d1sag4ddilekf6.cloudfront.net/compressed/merchants/4-C2UGA3CXJFCKDA/hero/144bba1e10044e78a04981d6497ccd6e_1622623844976805602.jpeg,,"[1.31441, 103.77051]",3,5
2504,Serangoon Soya Bean,Serangoon Soya Bean - West Coast Drive,"[""Beverages"", ""Breakfast & Brunch"", ""Dessert"", ""Healthy"", ""Snack""]",1.31186350819287,103.759936131318,https://d1sag4ddilekf6.cloudfront.net/compressed/merchants/4-C2UBVCEDVT6CJN/hero/aa569a9274564603800dec1bc0037160_1622201450588598363.jpeg,,"[1.31186350819287, 103.759936131318]",3,5
2506,香记 Xiang Ji,香记 Xiang Ji - Ayer Rajah Food Centre [Stall 45],"[""Local"", ""Asian"", ""Breakfast & Brunch"", ""Noodles""]",1.3119044038148144,103.7597956,https://d1sag4ddilekf6.cloudfront.net/compressed/merchants/4-CZLAFANZC8NYCX/hero/54a0321466bd4ba2be5a641e4bbbb7a2_1594028199508616786.jpg,5.0,"[1.3119044038148144, 103.7597956]",3,5
2510,Uncle Noodle 面叔叔,Uncle Noodle 面叔叔 - Ayer Rajah Food Centre,"[""Chinese"", ""Asian"", ""Noodles""]",1.311976,103.7596269,https://d1sag4ddilekf6.cloudfront.net/compressed/merchants/4-C2CAKBCBV24JNE/hero/459b3c905a284533ae65ae2d6133a0c8_1604048442076982405.jpg,4.8,"[1.311976, 103.7596269]",3,5
2512,108 Minced Meat Fishball Noodles,108 Minced Meat Fishball Noodles - Clementi Ave 3,"[""Asian"", ""Local"", ""Noodles"", ""Soup""]",1.313563,103.762431,https://d1sag4ddilekf6.cloudfront.net/compressed/merchants/4-C2TWVJVJMAWKWA/hero/6836f145e86d4e9a97e89d8d52fd033d_1621701360636864752.jpeg,5.0,"[1.313563, 103.762431]",3,5
2516,Prata Frenzy,Prata Frenzy - Clementi Ave 2,"[""Indian""]",1.3138935142857142,103.7702957,https://d1sag4ddilekf6.cloudfront.net/compressed/merchants/SGDD08712/hero/upload-photo-Hero_Photo_36ddda770e4e4e3b9e41ef9624c651d2_1556268585820759722.jpeg,4.1,"[1.3138935142857142, 103.7702957]",3,5
2517,Swee Heng Bakery,Swee Heng Bakery - The Clementi Mall,"[""Bakery & Cake"", ""Breakfast & Brunch"", ""Halal""]",1.31460516486138,103.765108270245,https://d1sag4ddilekf6.cloudfront.net/compressed/merchants/4-C2UBVBVKRY5YA2/hero/92ed3b614a2f4349a98274e13429d74f_1622190649862934361.jpg,,"[1.31460516486138, 103.765108270245]",3,5
2522,Mr. Coconut,Mr. Coconut - Clementi Mall,"[""Ice Cream"", ""Beverages"", ""Dessert""]",1.3151252,103.7646763,https://d1sag4ddilekf6.cloudfront.net/compressed/merchants/4-CZDDLLCEHFX2EX/hero/3c9e06690b4443cca9741401e6d50550_1586352848237512829.jpg,4.7,"[1.3151252, 103.7646763]",3,5
2527,Clementi 448 Fish Ball,Clementi 448 Char Siew Wanton Noodle - Clementi 448 Market & Food Centre [Stall 15],"[""Chinese"", ""Noodles""]",1.313571334740212,103.7646548,https://d1sag4ddilekf6.cloudfront.net/compressed/merchants/4-CY6TNCL1WBJAGT/hero/147cad7caab341cdbd2dcdb36ce4c319_1579060961415814443.jpg,3.8,"[1.313571334740212, 103.7646548]",3,5
2529,E-Sarn Thai,E-Sarn Thai Cuisine - Ridgewood Condominium,"[""Seafood"", ""Noodles"", ""Thai""]",1.3168391,103.77896665799663,https://d1sag4ddilekf6.cloudfront.net/compressed/merchants/4-CZAXV3WKJUDCVT/hero/36ceedae335049cf977e171801b2656e_1585197800436382071.jpeg,4.2,"[1.3168391, 103.77896665799663]",3,5
2533,Hello Dessert,Hello Dessert - Clementi 448 Market & Food Centre [Stall 29],"[""Local"", ""Dessert"", ""Beverages""]",1.313575252744797,103.76431925,https://d1sag4ddilekf6.cloudfront.net/compressed/merchants/4-CZEVRLAXNTTFCX/hero/2f35e833292346cb9ed10f43caa4eb1c_1620647642370720810.jpeg,4.2,"[1.313575252744797, 103.76431925]",3,5
2539,Hawkerman Street Kitchen,Hawkerman Street Kitchen - Clementi Ave 5,"[""Local"", ""Noodles""]",1.3185733424946229,103.7675002,https://d1sag4ddilekf6.cloudfront.net/compressed/merchants/4-C2JDRUXEJXLYCA/hero/b1249933e49b454499396c56c9086b1a_1610415746236169031.jpeg,3.9,"[1.3185733424946229, 103.7675002]",3,5
2540,Habib's Rojak,Habib's Rojak - West Coast Drive,"[""Asian"", ""Chicken"", ""Indian"", ""Singaporean""]",1.3115999,103.75986237553484,https://d1sag4ddilekf6.cloudfront.net/compressed/merchants/4-C2JFCTCEAUDTSA/hero/f7332f56b3c841f18e56a4ae7a4fc2e9_1610514044119964177.jpg,4.6,"[1.3115999, 103.75986237553484]",3,5
2544,Xin Peng La Mian Xiao Long Bao,Xin Peng La Mian Xiao Long Bao - Clementi Ave 3,"[""Chinese"", ""Asian"", ""Same Prices In-Store""]",1.3136389,103.764257725,https://d1sag4ddilekf6.cloudfront.net/compressed/merchants/4-CYNGPAEZARDUNT/hero/1f9f994153d74b3688066a7fd01a1a7f_1558711220521837594.png,4.2,"[1.3136389, 103.764257725]",3,5
2553,Clementi Ave 3 Foodloft Mix & Match - Beta,Clementi Ave 3 Foodloft Mix & Match,"[""Western"", ""Beverages"", ""Bread""]",1.3133830999999998,103.763334325,https://d1sag4ddilekf6.cloudfront.net/compressed/merchants/4-C2ATA7AELX2TDE/hero/43809cb745e146ceb68e911f8045e273_1601007287259416890.jpeg,4.7,"[1.3133830999999998, 103.763334325]",3,5
2556,Jack's Place,Jack's Place - 321 Clementi,"[""Western"", ""Same Prices In-Store"", ""Salad"", ""Kids Friendly""]",1.31194014,103.76519188071566,https://d1sag4ddilekf6.cloudfront.net/compressed/merchants/4-CZEGTTUXFBBKME/hero/11a58a8cdb6d4551a90f23ba5f0683ad_1589447631613166121.jpeg,4.4,"[1.31194014, 103.76519188071566]",3,5
2560,Tikka Taj,Tikka Taj - 321 Clementi,"[""Asian"", ""Indian""]",1.3120122,103.76502,https://d1sag4ddilekf6.cloudfront.net/compressed/merchants/4-C2MTAEVKJVCZCX/hero/fdde38c812e04ea8b67bd6447f7d2fe0_1617068212443603915.jpeg,,"[1.3120122, 103.76502]",3,5
2563,Indian Muslim Food,Indian Muslim Food - Clementi Ave 3,"[""Indian""]",1.3140171145100994,103.76524579938734,https://d1sag4ddilekf6.cloudfront.net/compressed/merchants/4-C2JFEVJBAFLFL6/hero/dcd037ec3793432daee9a8403db6cb55_1613093251520239110.jpeg,3.7,"[1.3140171145100994, 103.76524579938734]",3,5
2566,Each A Cup,Each A Cup - Dover MRT Station,"[""Beverages"", ""Bubble Tea"", ""Coffee & Tea"", ""Asian""]",1.3114245,103.7783031,https://d1sag4ddilekf6.cloudfront.net/compressed/merchants/4-C2MZWALBWFCDT6/hero/45b03a2dd7a94dad92eefe5007c46eee_1617776476484241639.jpeg,5.0,"[1.3114245, 103.7783031]",3,5
2567,Jannathul Firthous Shenton Way Power Indian Muslim Stall,Jannathul Firthous Shenton Way Power Indian Muslim Stall - Ayer Rajah Food Centre [Stall 55],"[""Noodles"", ""Indian"", ""Same Prices In-Store"", ""Chicken""]",1.3118339,103.75989287,https://d1sag4ddilekf6.cloudfront.net/compressed/merchants/4-CZDXHEAZLJE1WA/hero/e5d1fb014a28440a9efff0f36f11e791_1588570794704913784.jpeg,4.1,"[1.3118339, 103.75989287]",3,5
2570,Evertop Halal Boneless Chicken Rice,Evertop Halal Boneless Chicken Rice - Clementi Ave 2 Shopping Centre,"[""Chicken"", ""Halal"", ""Local""]",1.3146947,103.770221,https://d1sag4ddilekf6.cloudfront.net/compressed/merchants/4-CZCYSEWCN2VFEX/hero/f4d29d5145da4c30ac89ce83fe290c06_1589963636225934004.jpeg,4.6,"[1.3146947, 103.770221]",3,5
2571,Ming Xiang Traditional Roasted,Ming Xiang Traditional Roasted - Clementi Ave 2 Shopping Centre,"[""Local"", ""Asian""]",1.3146853,103.7710724,https://d1sag4ddilekf6.cloudfront.net/compressed/merchants/4-CZEFR7UTWELJDE/hero/05fdad2e24a641dca440625a4cb00293_1588578328452825003.jpeg,3.8,"[1.3146853, 103.7710724]",3,5
2574,Kimly Dim Sum,Kimly Dim Sum - Clementi Ave 3,"[""Asian"", ""Chinese"", ""Malaysian"", ""Local"", ""Dim Sum""]",1.3131402,103.7657912,https://d1sag4ddilekf6.cloudfront.net/compressed/merchants/4-CYV1R2TFEZA3V6/hero/a49a20ca8ed34747a664a8308827d428_1565831318909375410.jpeg,4.3,"[1.3131402, 103.7657912]",3,5
2576,Feng Cha,Feng Cha - Grantral Mall @ Clementi,"[""Asian"", ""Beverages"", ""Bubble Tea""]",1.314371278,103.7651261,https://d1sag4ddilekf6.cloudfront.net/compressed/merchants/4-C2LCJTEJVYLXMA/hero/95b85c8d13f54e0a96d5449d0c39b481_1615448349028012371.jpeg,4.8,"[1.314371278, 103.7651261]",3,5
2578,Mei Shi Cheng Congee,Mei Shi Cheng Congee - Clementi Ave 2,"[""Local"", ""Chinese""]",1.3135236,103.7669327,https://d1sag4ddilekf6.cloudfront.net/compressed/merchants/4-CYLTMATUV2V2LN/hero/13e07b339bc4482cbea5e77457634f45_1559275065704614294.jpeg,4.5,"[1.3135236, 103.7669327]",3,5
2582,JueWei,JueWei - Commonwealth Ave West,"[""Asian"", ""Same Prices In-Store"", ""Local"", ""Chinese""]",1.3144213,103.76513525714286,https://d1sag4ddilekf6.cloudfront.net/compressed/merchants/SGDD07264/hero/d1a712e9939b45979f58305831e1492a_1566650791549918702.jpeg,4.4,"[1.3144213, 103.76513525714286]",3,5
2587,Sushi Takeout,Sushi Takeout - Cityvibe,"[""Japanese"", ""Sushi"", ""Asian"", ""Healthy""]",1.3145444775012456,103.7649652,https://d1sag4ddilekf6.cloudfront.net/compressed/merchants/4-CYLXGEUDCGNBSA/hero/77b8f2fc1e404da9bad614362628500d_1572187174671744453.png,4.3,"[1.3145444775012456, 103.7649652]",3,5
2592,Free & Easy Minimart,Free & Easy Minimart - Clementi Ave 3,"[""Alcohol"", ""Mart""]",1.3137535600652352,103.76236151410662,https://d1sag4ddilekf6.cloudfront.net/compressed/merchants/4-CZNFDCBZGXNEUE/hero/eb569b9f51e947edbfa06c750839a20c_1598526316677078026.jpeg,4.0,"[1.3137535600652352, 103.76236151410662]",3,5
2594,Clementi Western Food 448,Clementi Western Food 448 - Clementi Ave 3,"[""Western""]",1.31361332909762,103.764331135561,https://d1sag4ddilekf6.cloudfront.net/compressed/merchants/4-C2TZLBVCACLHVT/hero/e23bacb7429e42e5be21d3dfd2b4b71e_1621650642125791629.jpg,,"[1.31361332909762, 103.764331135561]",3,5
2597,Badaling,Badaling - Clementi Ave 3,"[""Local"", ""Beverages"", ""Alcohol""]",1.3127951,103.7651278,https://d1sag4ddilekf6.cloudfront.net/compressed/merchants/4-CZE2TXNWJJ3AWA/hero/ec00440241d14b209a64fac3537813b3_1589885197109784627.jpg,,"[1.3127951, 103.7651278]",3,5
2599,Fish & Co.,Fish & Co. - Clementi Ave 3,"[""Western"", ""Fish & Chips"", ""Fish"", ""Kids Friendly""]",1.3139370814814817,103.76533483574352,https://d1sag4ddilekf6.cloudfront.net/compressed/merchants/4-CZLXBEUZLKWKT2/hero/21757e7b10494392a623d68e9b25e082_1595932012543380780.jpeg,4.3,"[1.3139370814814817, 103.76533483574352]",3,5
2601,I'm Kim Korean BBQ,I'm Kim Korean BBQ - Grantral Mall @ Clementi,"[""Asian"", ""BBQ"", ""Chicken"", ""Kids Friendly"", ""Korean""]",1.313349669,103.7658918,https://d1sag4ddilekf6.cloudfront.net/compressed/merchants/4-C2UHCFL2MGADAE/hero/03e57ec552214d3a850d997f09b273a4_1622723131149468243.jpeg,,"[1.313349669, 103.7658918]",3,5
2602,Xiang Ba Lao,Xiang Ba Lao - New Tech Park,"[""Noodles"", ""Same Prices In-Store"", ""Chinese"", ""Chicken""]",1.313390088888889,103.763372,https://d1sag4ddilekf6.cloudfront.net/compressed/merchants/4-C2DBVZCBKA5YJ2/hero/7ffb26b7495041c3b0bac0ff85c3a6cd_1608307882121569203.jpeg,4.0,"[1.313390088888889, 103.763372]",3,5
2605,Yeongyang Bowl,Yeongyang Bowl - The Clementi Mall,"[""Halal"", ""Healthy"", ""Korean""]",1.313658,103.765335,https://d1sag4ddilekf6.cloudfront.net/compressed/merchants/4-C2UGGPCHCBJYAT/hero/fcba26b1d5e64620a888d955b0534d2b_1622695267971133572.jpeg,,"[1.313658, 103.765335]",3,5
2606,Mohamed Ismail Mee Goreng Specialist from Shenton Way,Mohamed Ismail Mee Goreng Specialist from Shenton Way - Ayer Rajah Food Centre [Stall 57],"[""Indian"", ""Noodles""]",1.311830625,103.75999,https://d1sag4ddilekf6.cloudfront.net/compressed/merchants/4-CY4JGJUTBCBYA2/hero/750757a775a9497ea15eeec1b366b1ca_1579770683335204771.jpeg,4.4,"[1.311830625, 103.75999]",3,5
2608,Sayed Aminah Muslim Food,Sayed Aminah Muslim Food - Clementi Ave 3,"[""Indian"", ""Local"", ""Noodles"", ""Singaporean""]",1.3135735,103.7645341,https://d1sag4ddilekf6.cloudfront.net/compressed/merchants/4-C2T3CYEDRJEXTX/hero/75f1b53c98de4810a3e0153d4452ff5f_1621915483850712906.jpg,,"[1.3135735, 103.7645341]",3,5
2609,Ibrahim Rojak,Ibrahim Rojak - West Coast Drive,"[""Asian"", ""Indian"", ""Local""]",1.31186350819287,103.759936131318,https://d1sag4ddilekf6.cloudfront.net/compressed/merchants/4-C2UEG6VHCZAWBE/hero/7b55559124d84d30a47156a98f60790e_1622437247246527894.jpg,,"[1.31186350819287, 103.759936131318]",3,5
2612,Baker Talent,Baker Talent - Clementi Ave 3,"[""Bakery & Cake"", ""Local"", ""Snack""]",1.313867,103.764387,https://d1sag4ddilekf6.cloudfront.net/compressed/merchants/4-C2BTVB62NU2JRN/hero/c94447d521dc49bea20064fb1a8b1f14_1603097910129469405.jpeg,,"[1.313867, 103.764387]",3,5
2614,Yi Xiang Lei Cha,Yi Xiang Lei Cha - West Coast Drive,"[""Asian"", ""Healthy"", ""Local"", ""Vegetarian"", ""Chinese""]",1.31202033553245,103.759793825468,https://d1sag4ddilekf6.cloudfront.net/compressed/merchants/4-C2M3JELER352EE/hero/2f570db5aad54b2fa7eeecaae2c99217_1618382330131461458.jpeg,4.0,"[1.31202033553245, 103.759793825468]",3,5
2617,Pallakkouly Shireen Rizwana Shenton Way Muslim Food,Pallakkouly Shireen Rizwana Shenton Way Muslim Food - Ayer Rajah Food Centre [Stall 49],"[""Indian"", ""Noodles"", ""Chicken""]",1.3118129,103.759747,https://d1sag4ddilekf6.cloudfront.net/compressed/merchants/4-CYTHTUWXVJ6BR6/hero/75r-24bits-100kb-09c2c63e332bb5e645be1d4cc8daac819c803089ece84b881cbe7d5f2f77f83b-fca7a27e73564a609e3ce23803b42027_1564482246733175541.jpeg,4.1,"[1.3118129, 103.759747]",3,5
2618,Collin's Grille,Collin's Grille - West Coast Drive,"[""Western"", ""Pasta"", ""Chicken"", ""Seafood"", ""Steak""]",1.3123138,103.75928785303635,https://d1sag4ddilekf6.cloudfront.net/compressed/merchants/SGDD11808/hero/ec9fe1daf3064fa1b00fd92e542ecbb7_1621505893853870518.jpeg,4.6,"[1.3123138, 103.75928785303635]",3,5
2619,Double Up,Double Up - West Coast Drive,"[""Asian"", ""Chinese""]",1.31229,103.75995,https://d1sag4ddilekf6.cloudfront.net/compressed/merchants/4-C2UCAYJXVKLCFA/hero/6694ffee4737432480994ece2caecd81_1622205515054852299.jpg,,"[1.31229, 103.75995]",3,5
2620,Zheng Hua King Prawn Noodle & Wuxiang,Zheng Hua King Prawn Noodle & Wuxiang - Clementi Ave 3,"[""Asian"", ""Chinese"", ""Noodles""]",1.31407,103.76408,https://d1sag4ddilekf6.cloudfront.net/compressed/merchants/4-C2LBHEVETZCJLA/hero/8d53b57dcf7b436db8d7aa835384dacc_1614139244970140327.jpg,3.0,"[1.31407, 103.76408]",3,5
2622,Yakiniku Like,Yakiniku Like - Clementi Mall,"[""Asian"", ""BBQ"", ""Japanese""]",1.31460516486138,103.765108270245,https://d1sag4ddilekf6.cloudfront.net/compressed/merchants/4-C2UHR7CFE2W1VN/hero/42c6483193d14ecfabad0e3463c2c993_1622777445814313849.jpg,,"[1.31460516486138, 103.765108270245]",3,5
2623,Japanese Korean Cuisine,Japanese Korean Cuisine - Clementi Ave 5,"[""Asian"", ""Chicken"", ""Japanese"", ""Korean""]",1.3154565744720657,103.76687573991734,https://d1sag4ddilekf6.cloudfront.net/compressed/merchants/4-C2NTAVADTABBJE/hero/1cc12bc166a947478094e365a8886cba_1619074398135755759.jpeg,3.6,"[1.3154565744720657, 103.76687573991734]",3,5
2626,Kimly Seafood,Kimly Seafood - 325 Clementi,"[""Seafood"", ""Chinese"", ""Noodles"", ""Chicken""]",1.3147766666666667,103.766905975,https://d1sag4ddilekf6.cloudfront.net/compressed/merchants/SGDD01655/hero/KimlySeafood_Hero_16x9.jpg,4.4,"[1.3147766666666667, 103.766905975]",3,5
2627,Tuk Tuk Cha,Tuk Tuk Cha - The Clementi Mall,"[""Asian"", ""Thai"", ""Halal"", ""Beverages""]",1.3147891,103.7646032,https://d1sag4ddilekf6.cloudfront.net/compressed/merchants/4-CZC2CJUXGJKFCA/hero/2806b9a23bd04735b7b963ec1ee87844_1613531152560796046.jpeg,4.3,"[1.3147891, 103.7646032]",3,5
2628,The Body Shop,The Body Shop - The Clementi Mall,"[""Wellness"", ""Health & Wellness"", ""Mart"", ""Health & Beauty""]",1.31495355,103.76435611346156,https://d1sag4ddilekf6.cloudfront.net/compressed/merchants/4-CZJWJ25ZFCL3CT/hero/9e4dc180f77548caa55b9404a3f7776f_1598260895144569018.jpeg,5.0,"[1.31495355, 103.76435611346156]",3,5
2629,37 Degrees,37 Degrees - Clementi Bus Interchange,"[""Beverages"", ""Bubble Tea"", ""Coffee & Tea""]",1.31457404933406,103.765179825493,https://d1sag4ddilekf6.cloudfront.net/compressed/merchants/4-C2T3KFCDLNWCCX/hero/04801c898f154c3a8dc53006c1191f1c_1622592124579490815.jpeg,5.0,"[1.31457404933406, 103.765179825493]",3,5
2631,Sinar Bahru Muslim Food,Sinar Bahru Muslim Food - Clementi Ave 5,"[""Local""]",1.3173997927535623,103.76739095826696,https://d1sag4ddilekf6.cloudfront.net/compressed/merchants/SGDD12467/hero/b7d0d7e73828425c9192a416bc84064b_1559293305786912445.jpeg,4.4,"[1.3173997927535623, 103.76739095826696]",3,5
2632,Za Dining,Za Dining - Ridgewood Condominium,"[""Japanese"", ""Noodles""]",1.31675095,103.77905246638043,https://d1sag4ddilekf6.cloudfront.net/compressed/merchants/4-CZBVJ2LVJ3TTEE/hero/3b4d5f87d78f4af090c66a8b64ca3319_1583246157316416849.jpg,3.9,"[1.31675095, 103.77905246638043]",3,5
2633,Tai,Tai-Croissant - The Clementi Mall,"[""Western"", ""Snack"", ""Pastries""]",1.3150550333333333,103.7645506,https://d1sag4ddilekf6.cloudfront.net/compressed/merchants/4-CY3UCPKWFBNDJN/hero/04a6119c471a4efa9617d9c84f6feeb9_1573176342707998051.jpeg,4.4,"[1.3150550333333333, 103.7645506]",3,5
2634,KOI The,KOI The - Clementi,"[""Bubble Tea"", ""Beverages""]",1.3143246,103.7640259,https://d1sag4ddilekf6.cloudfront.net/compressed/merchants/4-CYXHC74ENNKXSE/hero/3a263621494b4dce927bbc0afe60e55e_1574426070400330436.jpeg,4.7,"[1.3143246, 103.7640259]",3,5
2636,Chuan Wei Mala Hot Pot,Chuan Wei Mala Hot Pot - West Coast Drive,"[""Asian"", ""Chinese""]",1.312345,103.75934,https://d1sag4ddilekf6.cloudfront.net/compressed/merchants/4-C2C2PAVFLA5YTE/hero/efca6472823741ed87e9470d42dd8812_1606028625879568035.jpeg,2.6,"[1.312345, 103.75934]",3,5
2638,So Pho,So Pho - Clementi Mall,"[""Halal"", ""Noodles"", ""Vietnamese"", ""Same Prices In-Store"", ""Dessert""]",1.3150665,103.76453846666666,https://d1sag4ddilekf6.cloudfront.net/compressed/merchants/SGDD03049/hero/7cb666ecb6d097270461c3d071af96de-w550-b9.jpg,4.5,"[1.3150665, 103.76453846666666]",3,5
2641,Juk Story,Juk Story - The Clementi Mall,"[""Asian"", ""Korean""]",1.3150972206267824,103.76457358167374,https://d1sag4ddilekf6.cloudfront.net/compressed/merchants/4-C2MURBCHJCMYAN/hero/f8390523a5cb46919e13e392aa41f4dd_1617241397703296225.jpeg,4.4,"[1.3150972206267824, 103.76457358167374]",3,5
2643,Ramen Ichiro,Ramen Ichiro - Clementi Mall,"[""Japanese"", ""Ramen"", ""Rice""]",1.3151411,103.7646113,https://d1sag4ddilekf6.cloudfront.net/compressed/merchants/SGDD08574/hero/ab91964e051140f298560268b19816b6_1605696402171680986.jpeg,4.4,"[1.3151411, 103.7646113]",3,5
2645,Di Er Dai,Di Er Dai - Clementi Ave 5,"[""Asian"", ""Local"", ""Chinese"", ""Noodles""]",1.31545395,103.766910772,https://d1sag4ddilekf6.cloudfront.net/compressed/merchants/4-CZC2ALJ3G8MYLN/hero/6ffe94d4d40245dfb53974e1c59f770f_1587752897762027226.jpeg,4.1,"[1.31545395, 103.766910772]",3,5
2646,Proofer Bakery & Pizzeria,Proofer Bakery & Pizzeria - The Clementi Mall,"[""Pizza"", ""Western""]",1.3150917,103.7648772,https://d1sag4ddilekf6.cloudfront.net/compressed/merchants/4-C2AEETUGVFU3G2/hero/07c257d2194340e49f77af3abb8af906_1600428877676373330.jpeg,5.0,"[1.3150917, 103.7648772]",3,5
2647,Eng's Heritage,Eng’s Heritage - The Clementi Mall,"[""Asian"", ""Chinese"", ""Convenience"", ""Fast Food"", ""Noodles""]",1.3150409,103.76452208633542,https://d1sag4ddilekf6.cloudfront.net/compressed/merchants/4-C2CKEAEFJ2U2CX/hero/51d72763d8c547ff99cad16ed1753ba5_1604974519902817516.jpeg,4.0,"[1.3150409, 103.76452208633542]",3,5
2648,Shake Shake In A Tub,Shake Shake In A Tub - The Clementi Mall,"[""Beverages"", ""Fast Food"", ""Chicken""]",1.3151088,103.7647035,https://d1sag4ddilekf6.cloudfront.net/compressed/merchants/4-CZEUVPXEV4AHHE/hero/db73f6b6b8ef4c9199003411b9e2de52_1589275093111223398.jpeg,4.5,"[1.3151088, 103.7647035]",3,5
2649,HockHua Tonic,HockHua Tonic - Clementi Mall,"[""Gifts"", ""Hampers"", ""Health & Wellness""]",1.3151278125,103.7647008625,https://d1sag4ddilekf6.cloudfront.net/compressed/merchants/4-C2J1JYXUNAVVGJ/hero/61862fad9eeb4f55b5a04ac3e71aac4f_1612152981801658868.jpeg,5.0,"[1.3151278125, 103.7647008625]",3,5
2652,Ichiban Sushi,Ichiban Sushi - Clementi Mall,"[""Japanese"", ""Noodles""]",1.3152023,103.7646098,https://d1sag4ddilekf6.cloudfront.net/compressed/merchants/4-CYUZDAV3E6NYWA/hero/82104bf64459417698e004f2c56d9fd2_1564628942756795610.jpeg,4.3,"[1.3152023, 103.7646098]",3,5
2653,Kaffe & Toast,Kaffe & Toast - Clementi Mall,"[""Halal"", ""Breakfast & Brunch"", ""Western"", ""Coffee"", ""Tea""]",1.3151673471204188,103.76472565978423,https://d1sag4ddilekf6.cloudfront.net/compressed/merchants/SGDD07396/hero/upload-photo-Hero_Photo_be38932736654a96973018a85f9a1593_1554953775477209860.jpeg,4.2,"[1.3151673471204188, 103.76472565978423]",3,5
2660,Swensen's,Swensen's - Clementi Mall [Islandwide Delivery],"[""Same Prices In-Store"", ""Western"", ""Halal"", ""Chicken"", ""Dessert""]",1.31520662,103.7646300037037,https://d1sag4ddilekf6.cloudfront.net/compressed/merchants/SGDD10017/hero/LLjYP_AH.jpeg,4.2,"[1.31520662, 103.7646300037037]",3,5
2668,Ootoya,Ootoya - The Clementi Mall,"[""Japanese"", ""Asian"", ""Noodles"", ""Kids Friendly"", ""Islandwide Delivery""]",1.3152343,103.7646,https://d1sag4ddilekf6.cloudfront.net/compressed/merchants/SGDD10145/hero/48a30311fba642998be089949401c007_1576730504069109197.jpeg,4.4,"[1.3152343, 103.7646]",3,5
2696,SG Durian Boy,SG Durian Boy - Clementi Ave 5,"[""Durian"", ""Local"", ""Mart"", ""Fresh Produce""]",1.317433,103.769031,https://d1sag4ddilekf6.cloudfront.net/compressed/merchants/4-C2LURKCGPAJJR2/hero/7c6828626b7e48a58789641225e744da_1615178586518469586.jpeg,,"[1.317433, 103.769031]",3,5
2699,Joy Satay,Joy Satay - Clementi Ave 5,"[""Asian"", ""BBQ"", ""Local""]",1.31834,103.76779,https://d1sag4ddilekf6.cloudfront.net/compressed/merchants/4-C2NDTRLKDABJTA/hero/a912a62ec95e4a46a8e73fee0a28ff22_1618383949316253087.jpg,5.0,"[1.31834, 103.76779]",3,5
2702,Mee Bagus,Mee Bagus - Clementi Ave 5,"[""Chinese"", ""Local"", ""Noodles""]",1.318519,103.767642,https://d1sag4ddilekf6.cloudfront.net/compressed/merchants/4-C2L1VFVJNF4ULA/hero/ea4e9efd541b4c9098eb968017c99048_1615803836726875973.jpeg,4.0,"[1.318519, 103.767642]",3,5
2705,Kedai Kopi,Kedai Kopi - Clementi Ave 5,"[""Beverages"", ""Breakfast & Brunch"", ""Coffee & Tea""]",1.3186185371274437,103.76750846666668,https://d1sag4ddilekf6.cloudfront.net/compressed/merchants/4-C2JDRUXDJCLHDE/hero/399e60fdb04f4ddc9c560b4ed911938c_1610415644769049628.jpeg,1.5,"[1.3186185371274437, 103.76750846666668]",3,5
2726,Moonlight Masala,Moonlight Masala - 321 Clementi,"[""Asian"", ""Indian""]",1.3120122,103.76502,https://d1sag4ddilekf6.cloudfront.net/compressed/merchants/4-C2MTAEVKJVDUME/hero/23512b92c0164f27825995777d9e1097_1617071627088842433.jpeg,,"[1.3120122, 103.76502]",3,5
2729,Hong Kong Street Chun Tat Kee,Hong Kong Street Chun Tat Kee - Clementi Ave 3,"[""Seafood"", ""Local""]",1.312741615363983,103.7651775,https://d1sag4ddilekf6.cloudfront.net/compressed/merchants/4-CYTHTUWUAEX1RE/hero/1262bc19d38a4bbd99ec2c109a99b77a_1592280208954887263.jpeg,4.4,"[1.312741615363983, 103.7651775]",3,5
2739,The Gift Box Confections,The Gift Box Confections - Clementi Ave 2 Shopping Centre,"[""Bakery & Cake"", ""Mart"", ""Cupcakes""]",1.3134762,103.77119215807542,https://d1sag4ddilekf6.cloudfront.net/compressed/merchants/4-C2KDLACJVYEZEE/hero/62ebbb42df024ab98067d5da433ad015_1612352763557459599.jpeg,4.5,"[1.3134762, 103.77119215807542]",3,5
2740,Forage,Forage - 321 Clementi Mall,"[""Healthy"", ""Salad"", ""Western"", ""Breakfast & Brunch"", ""Coffee & Tea""]",1.31176862325802,103.764857764095,https://d1sag4ddilekf6.cloudfront.net/compressed/merchants/4-C2TVETMHR7WHL6/hero/77f57fa55b6e49209c834ba41b5a7150_1621239298601602639.jpeg,,"[1.31176862325802, 103.764857764095]",3,5
2742,Noodles & Double boil soup,Noodles & Double boil soup @ 328 Clementi,"[""Asian"", ""Korean"", ""Noodles"", ""Ramen"", ""Soup""]",1.3135036,103.7669169,https://d1sag4ddilekf6.cloudfront.net/compressed/merchants/4-CZNTC72VL24FNN/hero/e5fb38e3dbe24844992736669a5f569c_1617724415773643914.png,3.8,"[1.3135036, 103.7669169]",3,5
2747,Thai Food by Jing Jing 好食,Thai Food by Jing Jing 好食 - Clementi Avenue 2,"[""Asian"", ""Noodles"", ""Salad"", ""Seafood"", ""Thai""]",1.313549,103.7669298,https://d1sag4ddilekf6.cloudfront.net/compressed/merchants/4-C2DBE72AVU3WC6/hero/487a2e44d036445080603ec2dded6cc0_1606127701051132145.jpg,4.0,"[1.313549, 103.7669298]",3,5
2748,77 Claypot Delights & Double Boiled Soups,77 Claypot Delights & Double Boiled Soups - Clementi Ave 2,"[""Asian"", ""Chinese""]",1.3135968733736,103.767254774078,https://d1sag4ddilekf6.cloudfront.net/compressed/merchants/4-C2UCA4CJCECZTX/hero/6b9aaef62f1446aa8af41001555f685e_1622206848231649656.jpg,,"[1.3135968733736, 103.767254774078]",3,5
2751,Pontian Wanton Noodles,Pontian Wanton Noodles - Clementi Ave 3,"[""Singaporean"", ""Noodles"", ""Chinese""]",1.3133763708953738,103.76460781961232,https://d1sag4ddilekf6.cloudfront.net/compressed/merchants/4-CY42R6DECKVURX/hero/cc757425e1b44701af7fea8691eeaca9_1576425696881995141.jpeg,4.0,"[1.3133763708953738, 103.76460781961232]",3,5
2753,Valle,Valle - Ridgewood Condominium,"[""Alcohol"", ""Pizza"", ""Snack"", ""Western"", ""Wine""]",1.31662388,103.7790686,https://d1sag4ddilekf6.cloudfront.net/compressed/merchants/SGDD10715/hero/Valle.jpg,4.2,"[1.31662388, 103.7790686]",3,5
2755,SM71 Fishball Noodle & Fish Soup,SM71 Fishball Noodle & Fish Soup - Clementi Ave 2,"[""Asian"", ""Chinese"", ""Local"", ""Noodles"", ""Soup""]",1.314361,103.770516,https://d1sag4ddilekf6.cloudfront.net/compressed/merchants/4-C2UBA3NWRXLTC2/hero/a41be098bf3b443ba80a34022a89d969_1622106593890988858.jpg,,"[1.314361, 103.770516]",3,5
2757,Banana Leaf BBQ Seafood,Banana Leaf BBQ Seafood - Clementi Ave 3,"[""Asian"", ""Seafood""]",1.3139123685484655,103.765362744,https://d1sag4ddilekf6.cloudfront.net/compressed/merchants/SGDD10789/hero/75r-24bits-100kb-0a1f9899c9ee8f878ee9d01c01c7249956de1fed0a871dcd71e1d4033069c2d1-cb45b93fde4d4ff2bf3a2c49b4d19dbd_1564042675748817632.jpeg,4.1,"[1.3139123685484655, 103.765362744]",3,5
2759,Mr Teh Tarik,Mr Teh Tarik - Clementi Ave 5,"[""Breakfast & Brunch"", ""Indian"", ""Vegetarian Friendly""]",1.3184961571428573,103.76751148333332,https://d1sag4ddilekf6.cloudfront.net/compressed/merchants/4-C2J3AYL1L6AJJA/hero/94ae463243604235bd729062eb9880f3_1611907845137455160.jpeg,4.2,"[1.3184961571428573, 103.76751148333332]",3,5
2763,Istimewa Nasi Padang,Istimewa Nasi Padang - Clementi Ave 5,"[""Seafood"", ""Singaporean"", ""Breakfast""]",1.3186058722222225,103.76757851881943,https://d1sag4ddilekf6.cloudfront.net/compressed/merchants/4-C2KEFEVHVEX3NN/hero/9046b838378e41b79f1080804b1eee57_1612442318954821782.jpeg,4.1,"[1.3186058722222225, 103.76757851881943]",3,5
2765,The Snack Stop,The Snack Stop - West Coast Drive,"[""Snack"", ""Western"", ""Kids Friendly""]",1.3113065,103.7587183,https://d1sag4ddilekf6.cloudfront.net/compressed/merchants/4-CZC3BGCVUB2GLE/hero/19066c8ddce748b5bb03eaff66e28988_1585909856159755319.jpg,,"[1.3113065, 103.7587183]",3,5
2767,Sio Grill,Sio Grill - Clementi Ave 3,"[""Chicken"", ""Fried Chicken"", ""Snack"", ""Steak"", ""Western""]",1.314045563,103.7639509,https://d1sag4ddilekf6.cloudfront.net/compressed/merchants/4-C2T3EBVFVVEWUE/hero/1242f46594184ce7b019237cc86d1369_1621920646046150623.jpg,,"[1.314045563, 103.7639509]",3,5
2770,988 Western Cuisine,988 Western Cuisine - Clementi Ave 3,"[""Local"", ""Chicken"", ""Western""]",1.31416552669559,103.76385130471049,https://d1sag4ddilekf6.cloudfront.net/compressed/merchants/4-CZCVSFE1TJK3HA/hero/9ccbde4367a941ab8ffca025109193df_1585279501303512297.jpg,3.7,"[1.31416552669559, 103.76385130471049]",3,5
2774,Zhou Ji,Zhou Ji - West Coast Drive,"[""Chinese"", ""Noodles""]",1.3125332,103.75955056,https://d1sag4ddilekf6.cloudfront.net/compressed/merchants/4-CY62JFMAEKMABA/hero/07915aab92604b9482ad4b694b2b733e_1579841563677884631.jpg,4.3,"[1.3125332, 103.75955056]",3,5
2785,Poulet Vous,Poulet Vous,"[""Western"", ""Burger"", ""Chicken""]",1.316667296721586,103.7791236,https://d1sag4ddilekf6.cloudfront.net/compressed/merchants/SGDD00913/hero/59e02e4007084ba8ef20d43418fd7011,4.3,"[1.316667296721586, 103.7791236]",3,5
2790,HiMart,HiMart - Clementi Ave 2,"[""Beverages"", ""Convenience"", ""Groceries"", ""Mart"", ""Health & Wellness""]",1.312407,103.768583,https://d1sag4ddilekf6.cloudfront.net/compressed/merchants/4-C2TKR7XAJA31AN/hero/a2174b577a70403da11dc1a955aa8176_1620977680505385655.jpg,,"[1.312407, 103.768583]",3,5
2793,Yakiniku Ohji,Yakiniku Ohji - Clementi Ave 3,"[""Japanese""]",1.312041336202901,103.7652578,https://d1sag4ddilekf6.cloudfront.net/compressed/merchants/4-CY3XMF6DRUWEGX/hero/ac2279cf73a7446286688a24faa85e2a_1576203657264889886.jpeg,3.9,"[1.312041336202901, 103.7652578]",3,5
2795,Clementi 448 Market & Food Centre - Beta,Clementi 448 Market & Food Centre,"[""Porridge"", ""Dessert"", ""Local"", ""Muslim"", ""Rice""]",1.3135735,103.7645341,https://d1sag4ddilekf6.cloudfront.net/compressed/merchants/4-CZN1G7D1GEK3LX/hero/3a8522a511d84016b32f6203448f525a_1600146862947334420.jpeg,3.5,"[1.3135735, 103.7645341]",3,5
2796,448 Clementi Hong Kee Villa,448 Clementi Hong Kee Villa - Clementi 448 Market & Food Centre [Stall 25],"[""Roasted chicken"", ""Chinese"", ""Roasted pork"", ""Snack"", ""Islandwide Delivery""]",1.3136243,103.764386,https://d1sag4ddilekf6.cloudfront.net/compressed/merchants/SGDD11776/hero/dfd84edb9a4b4336a32fea7222d2deb1_1619150087428477617.jpeg,4.4,"[1.3136243, 103.764386]",3,5
2797,Shi Zhi Wei,Shi Zhi Wei - Clementi Ave 3,"[""Local"", ""Chinese"", ""Seafood"", ""Noodles""]",1.31331072,103.7633317,https://d1sag4ddilekf6.cloudfront.net/compressed/merchants/SGDD11816/hero/0f050b23aa5f40f982fb9fe86e44d120_1615187310783274086.jpeg,4.5,"[1.31331072, 103.7633317]",3,5
2798,N.M Abdul Rahim Mee Goreng Stall,N.M Abdul Rahim Mee Goreng Stall - Ayer Rajah Food Centre [Stall 60],"[""Noodles"", ""Indian"", ""Same Prices In-Store"", ""Local""]",1.3118006,103.760066359966,https://d1sag4ddilekf6.cloudfront.net/compressed/merchants/4-CZEGSF3AWGACSA/hero/0a6d57a4934140178171df75710a2648_1588679724554726700.jpg,4.4,"[1.3118006, 103.760066359966]",3,5
2799,Sichuanchuzi,Sichuanchuzi - Clementi Ave 3,"[""Asian"", ""Chinese""]",1.31400758,103.7652869,https://d1sag4ddilekf6.cloudfront.net/compressed/merchants/4-CZJHGXAEE4ACNN/hero/9621cdb662c14d43bd52faabda4dda87_1590735007697554812.jpg,4.0,"[1.31400758, 103.7652869]",3,5
2800,Texas Lone Star,Texas Lone Star - Clementi Ave 3,"[""Western""]",1.3140787,103.7653478,https://d1sag4ddilekf6.cloudfront.net/compressed/merchants/4-C2JZG6VHANCZNJ/hero/52293a4d766d46288ced5e7167d027e6_1612259308916368361.jpeg,5.0,"[1.3140787, 103.7653478]",3,5
2801,West Coast Drive Ayer Rajah Food Centre - Beta,West Coast Drive Ayer Rajah Food Centre,"[""Indian"", ""Local"", ""Chinese"", ""Chicken"", ""BBQ""]",1.3118283,103.7598365,https://d1sag4ddilekf6.cloudfront.net/compressed/merchants/4-CZNFCXXVNJCUCA/hero/0e8bd1f82c3c4d1684b4157bb030783a_1598867169775330935.jpeg,4.2,"[1.3118283, 103.7598365]",3,5
2802,Old Chang Kee,Old Chang Kee - Caltex Service Station (Clementi Ave 2),"[""Halal"", ""Snack"", ""Local"", ""Finger Food"", ""Asian""]",1.3146529,103.7685957,https://d1sag4ddilekf6.cloudfront.net/compressed/merchants/4-CYN2GYUWTNKDGT/hero/6a022f05afaa4ec4b7988db553d03c0a_1561689748626162075.jpeg,4.6,"[1.3146529, 103.7685957]",3,5
2804,Buta Kin,Buta Kin - West Coast Drive,"[""Japanese"", ""Noodles"", ""Ramen"", ""Rice""]",1.31229,103.75995,https://d1sag4ddilekf6.cloudfront.net/compressed/merchants/4-C2T3HCEAKAWFCA/hero/84a95251ef974d3ebcdcc616c6d21c7a_1621949121033875600.jpeg,-1.0,"[1.31229, 103.75995]",3,5
2805,Fragrance,Fragrance - Clementi Ave 3,"[""Mart"", ""Local"", ""Snacks""]",1.3144063,103.76470125,https://d1sag4ddilekf6.cloudfront.net/compressed/merchants/SGDD10285/hero/Fragrance_Biz.PNG,4.6,"[1.3144063, 103.76470125]",3,5
2806,Ah Ma Lor Mee,Ah Ma Lor Mee - Clementi Ave 2,"[""Noodles"", ""Beverages"", ""Chinese""]",1.3135382460297045,103.7669718,https://d1sag4ddilekf6.cloudfront.net/compressed/merchants/SGDD10109/hero/Ah_Ma_Lor_Mee_Hero_960X540.jpg,4.5,"[1.3135382460297045, 103.7669718]",3,5
2807,Fragrance Paradise Mala 宏缘美食馆,Fragrance Paradise Mala 宏缘美食馆 - Clementi Ave 3,"[""Asian"", ""Chinese"", ""Singaporean""]",1.3142133,103.7637146,https://d1sag4ddilekf6.cloudfront.net/compressed/merchants/4-C2CZPB32DBBDVT/hero/66e6fe6cd86944b2831e51761b14cad1_1605668738257474211.jpg,3.9,"[1.3142133, 103.7637146]",3,5
2810,Pizza Hut,Pizza Hut - West Coast,"[""Pizza"", ""Halal"", ""Fast Food"", ""Western"", ""Pasta""]",1.31202342,103.75886262,https://d1sag4ddilekf6.cloudfront.net/compressed/merchants/4-CY3KNAJ3JZKAGT/hero/fe2367527be5478794010d3179327cf5_1591695160457546284.png,4.3,"[1.31202342, 103.75886262]",3,5
2811,Bap Bistro & Bar,BAP Bistro & Bar - Clementi Ave 2 Shopping Centre,"[""Beverages"", ""Chicken"", ""Pasta"", ""Burger""]",1.3142375,103.7715697,https://d1sag4ddilekf6.cloudfront.net/compressed/merchants/4-C2CZR7NJN3JUUA/hero/2798861a407c4c53970e784bfb73c4a7_1606636494995131174.jpeg,5.0,"[1.3142375, 103.7715697]",3,5
2818,The Clementi Mall B1 - Mix & Match,The Clementi Mall B1 - Mix & Match,"[""Local"", ""Asian""]",1.3148962,103.7644231,https://d1sag4ddilekf6.cloudfront.net/compressed/merchants/4-C2T2LZKAGBCYR6/hero/c15b15c2272f4414a14371f9ee39a707_1621911820222837007.jpeg,,"[1.3148962, 103.7644231]",3,5
2819,Hong Sheng Fish Soup,Hong Sheng Fish Soup - Clementi Ave 3,"[""Local"", ""Noodles"", ""Singaporean"", ""Soup""]",1.31361332909762,103.764331135561,https://d1sag4ddilekf6.cloudfront.net/compressed/merchants/4-C2UCANVTKCJHVN/hero/df54599b468c4dea83d21f1d8802bb0c_1622203250582451643.jpg,,"[1.31361332909762, 103.764331135561]",3,5
2820,Wc 503 Economical Rice,Wc 503 Economical Rice - Ayer Rajah Food Centre [Stall 27],"[""Chinese"", ""Local""]",1.3118196,103.7598582,https://d1sag4ddilekf6.cloudfront.net/compressed/merchants/4-CZEHNPTWMCKWET/hero/912693a5278e46b38226051accaae172_1588763616788832488.jpg,3.3,"[1.3118196, 103.7598582]",3,5
2821,Beijing Delights 北京美食,Beijing Delights 北京美食 - West Coast Drive,"[""Asian"", ""Chinese"", ""Noodles""]",1.3119979,103.7598437,https://d1sag4ddilekf6.cloudfront.net/compressed/merchants/4-C2E3DCLGVP6UA6/hero/fe42b8940e4b4a8d9544101dca4ccaa0_1609926331844504718.jpeg,,"[1.3119979, 103.7598437]",3,5
2822,Te Bak Kia Roasted,Te Bak Kia Roasted - West Coast Drive,"[""Asian"", ""Chinese"", ""Local"", ""Malaysian"", ""Singaporean""]",1.3119139,103.7594127,https://d1sag4ddilekf6.cloudfront.net/compressed/merchants/4-C2ECTN3GAF31JT/hero/4a8a672c7ef84e59bd711e344fd0b445_1609728022434454227.jpeg,5.0,"[1.3119139, 103.7594127]",3,5
2823,Wu Chin Leong Foodstuff Trading,Wu Chin Leong Foodstuff Trading - Clementi Avenue 3,"[""Asian"", ""Chinese"", ""Local"", ""Singaporean""]",1.31357950193377,103.762433411045,https://d1sag4ddilekf6.cloudfront.net/compressed/merchants/4-C2UHAZBDJLKVAT/hero/5e30def6941b483b8998ea2efdcc7050_1622705823497785778.jpg,,"[1.31357950193377, 103.762433411045]",3,5
2824,Bobertea,Bobertea - Clementi Ave 3,"[""Bubble Tea"", ""Coffee"", ""Tea""]",1.3146123,103.76461845358612,https://d1sag4ddilekf6.cloudfront.net/compressed/merchants/4-C2AEA7XJJENFKE/hero/0a7e9b672e5a4830adf99f0da3043d45_1600414839375582434.jpeg,4.5,"[1.3146123, 103.76461845358612]",3,5
2832,Fusion at Pine Grove,Fusion at Pine Grove,"[""Western"", ""Pasta""]",1.318097039,103.7737525,https://d1sag4ddilekf6.cloudfront.net/compressed/merchants/SGDD05314/hero/390a6b48198c8d66a2e3d58ae0fe9f39,,"[1.318097039, 103.7737525]",3,5
2851,BreadTalk,Breadtalk - The Clementi Mall,"[""Bakery"", ""Breakfast & Brunch"", ""Snacks"", ""Local"", ""Asian""]",1.3150541858143945,103.7647984,https://d1sag4ddilekf6.cloudfront.net/compressed/merchants/4-CZDCL2BJAFMUTT/hero/f17a15385eda4928941b8992b8a04316_1590985577406292849.jpeg,4.6,"[1.3150541858143945, 103.7647984]",3,5
2868,The Clementi Mall L4 and L5 - Mix & Match,The Clementi Mall L4 and L5 - Mix & Match,"[""Local"", ""Asian"", ""Noodles"", ""Bubble Tea""]",1.3150839054704164,103.76470666204062,https://d1sag4ddilekf6.cloudfront.net/compressed/merchants/4-C2T2MEW3RTADCE/hero/5e1885218dd64049812bd79f61105564_1621912004923085850.jpeg,4.3,"[1.3150839054704164, 103.76470666204062]",3,5
2880,HOTPOT by Seoul Garden Group,HOTPOT by Seoul Garden Group - The Clementi Mall,"[""Asian"", ""Korean"", ""Local""]",1.3150530597804533,103.76450606977728,https://d1sag4ddilekf6.cloudfront.net/compressed/merchants/4-C2MURBCHG6UCET/hero/1d006767380d456e9ecc0d8bf6a8785f_1617241717478610233.jpeg,4.8,"[1.3150530597804533, 103.76450606977728]",3,5
2883,Sushi Express,Sushi Express - The Clementi Mall,"[""Fast Food"", ""Healthy"", ""Japanese"", ""Sushi"", ""Asian""]",1.3151171612915815,103.7646739824886,https://d1sag4ddilekf6.cloudfront.net/compressed/merchants/4-C2LFTJCKLEWYGE/hero/510c087b566d438aa69dbba27b3a2d70_1614597976685422163.png,4.3,"[1.3151171612915815, 103.7646739824886]",3,5
2887,Nam Kee Pau,Nam Kee Pau - The Clementi Mall,"[""Local"", ""Snack""]",1.31512722,103.7646239,https://d1sag4ddilekf6.cloudfront.net/compressed/merchants/4-CZDDC33KLFEXBE/hero/3c37e91f1e464ad6a490c7a8fd3a0630_1591953851580640101.jpeg,4.4,"[1.31512722, 103.7646239]",3,5
2889,Ichiban Bento,Ichiban Bento - The Clementi Mall,"[""Noodles"", ""Same Prices In-Store"", ""Japanese""]",1.31519815,103.764614,https://d1sag4ddilekf6.cloudfront.net/compressed/merchants/4-CZCDGT23JEDXL2/hero/fb2f718fcd694f9a86d783b86f1d7aa2_1584342574885176393.jpeg,4.3,"[1.31519815, 103.764614]",3,5
2894,TwoHana,TwoHana - The Clementi Mall,"[""Korean"", ""Western""]",1.3151897324337511,103.76448465663628,https://d1sag4ddilekf6.cloudfront.net/compressed/merchants/4-C2MURBCHJE3CLT/hero/acec2e5004704ca384c1b6e809dfb5c0_1617239677842328269.jpeg,4.8,"[1.3151897324337511, 103.76448465663628]",3,5
2946,Mr Prata,Mr Prata - Clementi Ave 4,"[""Indian"", ""Local"", ""Halal""]",1.3169458665249552,103.76548465,https://d1sag4ddilekf6.cloudfront.net/compressed/merchants/4-CYNBCTA1MECGGE/hero/955f39fef1be495d83841782dba26e58_1561713000526897327.jpeg,4.2,"[1.3169458665249552, 103.76548465]",3,5
2960,Abdul Munaff Enterprise,Abdul Munaff Enterprise - Clementi Ave 5,"[""Mart"", ""Snack"", ""Fish & Chips""]",1.3177419,103.7673722,https://d1sag4ddilekf6.cloudfront.net/compressed/merchants/4-CZMGLTUYAYMVNN/hero/c359baabc88c4072971f3f971c2c2e5f_1611539500541286734.jpg,4.7,"[1.3177419, 103.7673722]",3,5
2968,Banana Grill,Banana Grill - Clementi Ave 5,"[""BBQ"", ""Seafood"", ""Singaporean""]",1.3184583555505596,103.7674955,https://d1sag4ddilekf6.cloudfront.net/compressed/merchants/4-C2JDRUXDVUCJJJ/hero/2f5522f7f37d4f16aafe16f53837c630_1610421408514907929.jpeg,4.3,"[1.3184583555505596, 103.7674955]",3,5
2973,TenderBest,TenderBest - Clementi Ave 5,"[""Fried Chicken"", ""Pasta"", ""Western""]",1.31859438,103.7675128,https://d1sag4ddilekf6.cloudfront.net/compressed/merchants/4-C2JDRUXFA3TGGA/hero/559e7f9aa7e7426f80c94bb3521b66b4_1610433845737011810.jpeg,4.3,"[1.31859438, 103.7675128]",3,5
3009,Singa Maharaja Selera Nusantara,Singa Maharaja Selera Nusantara - Clementi Ave 2,"[""Local"", ""Indonesian"", ""Seafood"", ""Chicken""]",1.3135426266666663,103.767045625,https://d1sag4ddilekf6.cloudfront.net/compressed/merchants/4-CY23AU53SGKFJA/hero/46c304852d2349d69883544d567663eb_1571904782905284536.jpg,4.1,"[1.3135426266666663, 103.767045625]",3,5
3020,Ah Meng Delicious Food,Ah Meng Delicious Food - Clementi Ave 2,"[""Singaporean"", ""Noodles"", ""Same Prices In-Store"", ""Chinese"", ""Soup""]",1.3142587,103.77077084067086,https://d1sag4ddilekf6.cloudfront.net/compressed/merchants/4-CZMACPKDL3UAG2/hero/a31c0c1d3f7b4f1dac16691257c5d26d_1596014751100665175.jpeg,5.0,"[1.3142587, 103.77077084067086]",3,5
3021,Muhammad & Nurmuhammad Meat Stall,Muhammad & Nurmuhammad Meat Stall - Clementi Ave 3,"[""Groceries"", ""Fresh Produce"", ""Fresh Meat & Poultry"", ""Mart""]",1.31361332909762,103.764331135561,https://d1sag4ddilekf6.cloudfront.net/compressed/merchants/4-C2UELYTHT8CUR6/hero/4d36c2ab7fc347e389cbf8a71726eabc_1622455607995947070.jpg,,"[1.31361332909762, 103.764331135561]",3,5
3035,The Soy Inc,The Soy Inc - Grantral Mall - Clementi,"[""Asian"", ""Same Prices In-Store"", ""Beverages"", ""Dessert""]",1.3143450622985584,103.76516125,https://d1sag4ddilekf6.cloudfront.net/compressed/merchants/4-CZECKFKWTGCBHE/hero/23da17f6dac046bbbd188b753ec5656f_1588249537230611766.jpg,3.7,"[1.3143450622985584, 103.76516125]",3,5
3038,Eng Kee Kopitiam Pte. Ltd.,Eng Kee Kopitiam Pte. Ltd. - West Coast Drive,"[""Local"", ""Asian"", ""Chinese"", ""Noodles""]",1.312444,103.760104,https://d1sag4ddilekf6.cloudfront.net/compressed/merchants/4-CZLWAAEBGCKXME/hero/3342fd06ff35462ebfd1be816dcdb8ef_1595303910727958931.jpeg,4.4,"[1.312444, 103.760104]",3,5
3040,Foodloft,Foodloft - West Coast Drive Foodloft,"[""Asian""]",1.3117824,103.7587035,https://d1sag4ddilekf6.cloudfront.net/compressed/merchants/4-C2NCVPVKJ25DSE/hero/9a62bd14b7e840e58a70ecf4250fb4e8_1618302081051225304.jpeg,,"[1.3117824, 103.7587035]",3,5
3052,Mervyn's Madeleines,Mervyn's Madeleines - Ridgewood Condominium,"[""Pasta"", ""Western""]",1.31663,103.77892,https://d1sag4ddilekf6.cloudfront.net/compressed/merchants/4-C2MBJKVFJCM3LJ/hero/ceed3a07a5c347ca95dfe29b66b6c1c4_1617616620858786711.jpeg,,"[1.31663, 103.77892]",3,5
5020,Burger King,Burger King - Clementi Mall,"[""Fast Food"", ""Burger""]",1.315250522008938,103.76459464519462,https://d1sag4ddilekf6.cloudfront.net/compressed/merchants/4-C2NZT4CGLN5BEN/hero/072348cd9d5d4c90850ea9ee6a206474_1622520856383834629.jpeg,4.5,"[1.315250522008938, 103.76459464519462]",3,5
5026,GNC,GNC - The Clementi Mall,"[""Mart"", ""Health & Wellness"", ""Wellness""]",1.3150435431024816,103.7647376,https://d1sag4ddilekf6.cloudfront.net/compressed/merchants/4-CYWKN8LGJ74DLT/hero/3823d782c6a146638c81d556b5813d55_1573641474793099489.jpeg,5.0,"[1.3150435431024816, 103.7647376]",3,5
5038,Hey Lulu,Hey Lulu - Clementi Avenue 4,"[""Asian"", ""Dessert"", ""Durian"", ""Local"", ""Malaysian""]",1.3209085,103.76711016666668,https://d1sag4ddilekf6.cloudfront.net/compressed/merchants/4-C2JFENCBV66VR2/hero/3e0f42a045c740dcaec1ca9f9c0fac9d_1610535226527345692.jpeg,3.9,"[1.3209085, 103.76711016666668]",3,5
5042,Saveur Thai,Saveur Thai - Clementi Ave 4,"[""Asian"", ""Local"", ""Singaporean"", ""Thai""]",1.320926663,103.7672679,https://d1sag4ddilekf6.cloudfront.net/compressed/merchants/4-C2EBRZE3GPL1TT/hero/f1c17b09c01f4f72925aacd8155af089_1612266594087588829.jpeg,4.4,"[1.320926663, 103.7672679]",3,5
5047,Ding Ji,Ding Ji - Clementi Ave 5,"[""Local"", ""Asian"", ""Noodles""]",1.3176157,103.768754,https://d1sag4ddilekf6.cloudfront.net/compressed/merchants/4-CZEKBBEWREMAVA/hero/8cbca35c2581419493b2bc5a86958774_1591941571060896291.jpeg,4.1,"[1.3176157, 103.768754]",3,5
5054,Hoho Korean Restaurant,Hoho Korean Restaurant - Clementi Street 12,"[""Western"", ""Asian"", ""Korean"", ""Noodles""]",1.3218401599200749,103.77006735913383,https://d1sag4ddilekf6.cloudfront.net/compressed/merchants/SGDD00577/hero/upload-photo-Hero_Photo_43fba92f536046508460eb95eaecb3c8_1555931236199493696.jpeg,4.4,"[1.3218401599200749, 103.77006735913383]",3,5
5063,Ren Ren Ai,Ren Ren Ai - Clementi Avenue,"[""Western""]",1.321885840712729,103.7640121835754,https://d1sag4ddilekf6.cloudfront.net/compressed/merchants/4-C2E3EGLXVBVGJX/hero/df73646b610d4c04b38a0a864cedf8bc_1610958718538672314.png,5.0,"[1.321885840712729, 103.7640121835754]",3,5
5073,Bee Cheng Hiang,Bee Cheng Hiang - The Clementi Mall,"[""Mart"", ""Snack"", ""Convenience""]",1.3151347,103.76470255,https://d1sag4ddilekf6.cloudfront.net/compressed/merchants/4-C2AHLYEYKAAFDE/hero/7c1ee05ada52485d878d1a372bfa9531_1600770034945892476.png,4.5,"[1.3151347, 103.76470255]",3,5
5076,The French Ladle,The French Ladle - Acacia Court,"[""French"", ""Islandwide Delivery""]",1.320699,103.7789044,https://d1sag4ddilekf6.cloudfront.net/compressed/merchants/SGDD10980/hero/2bc05cb150ce4c368432472ea7222ce7_1564651503971040608.jpeg,4.5,"[1.320699, 103.7789044]",3,5
5078,Plank Sourdough Pizza,Plank Sourdough Pizza - Eng Kong Park,"[""Fast Food"", ""Pizza"", ""Breakfast & Brunch"", ""Beverages""]",1.3364198,103.7680669651421,https://d1sag4ddilekf6.cloudfront.net/compressed/merchants/SGDD10716/hero/Plank_Sourdough_Pizza.jpg,4.1,"[1.3364198, 103.7680669651421]",3,5
5081,Little Saigon,Little Saigon,"[""Vietnamese""]",1.3217104,103.77897253253984,https://d1sag4ddilekf6.cloudfront.net/compressed/merchants/SGDD01219/hero/6023397424e44dd68aaff9bff76798a8_1563165359262410554.jpeg,3.3,"[1.3217104, 103.77897253253984]",3,5
5103,Henry Western,Henry Western - Hot Potato Cafe & Grill - Ngee Ann Polytechnic,"[""Fast Food"", ""Fried Chicken"", ""Western""]",1.3352243738644,103.7763413,https://d1sag4ddilekf6.cloudfront.net/compressed/merchants/4-CZLTHE5DGE62SA/hero/6c6fe64e0a1e45b8853283e5a44ae55a_1595045371490295724.jpeg,,"[1.3352243738644, 103.7763413]",3,5
5142,R&B Tea,R&B Tea - The Clementi Mall,"[""Tea"", ""Bubble Tea"", ""Beverages""]",1.3151392,103.7646361,https://d1sag4ddilekf6.cloudfront.net/compressed/merchants/4-CY4JGLLFNAL1ET/hero/90106054333743f4a49842181f8c43a6_1574913969793416263.jpeg,4.6,"[1.3151392, 103.7646361]",3,5
5146,Watsons,Watsons - Clementi Mall,"[""Pharmacy"", ""Wellness"", ""Mart"", ""Health & Beauty"", ""Pharmacy/Health""]",1.31511722,103.76475405,https://d1sag4ddilekf6.cloudfront.net/compressed/merchants/4-CZLAUBEUPAKDAN/hero/9f6163b4e38447308c713a6015f7a86c_1610173296674231937.jpg,4.9,"[1.31511722, 103.76475405]",3,5
5180,LiHO Tea,LiHO Tea - Clementi Ave 3,"[""Beverages"", ""Local"", ""Bubble Tea"", ""Same Prices In-Store""]",1.3138703,103.76454731521407,https://d1sag4ddilekf6.cloudfront.net/compressed/merchants/4-CY6TT4JGJPAJGA/hero/f7e954c0ac7342b0843989ba27ee3c7e_1621403061751381632.jpeg,4.6,"[1.3138703, 103.76454731521407]",3,5
5183,Lina Satay Club,Lina Satay Club - Clementi Street 12,"[""Chicken"", ""Local""]",1.32195826,103.76965816866324,https://d1sag4ddilekf6.cloudfront.net/compressed/merchants/4-CZA3ETTUSBTJC6/hero/66536bd472764bf2b3a6204fcf18699e_1581924215096302122.jpg,4.4,"[1.32195826, 103.76965816866324]",3,5
5188,Hua Zai Roasted Duck,Hua Zai Roasted Duck - Clementi,"[""Chinese"", ""Local"", ""Noodles""]",1.3148074428571428,103.7668767,https://d1sag4ddilekf6.cloudfront.net/compressed/merchants/SGDD00543/hero/392a46c494cc44308e42b9a480353641_1619750653987174811.jpg,3.5,"[1.3148074428571428, 103.7668767]",3,5
5192,Mr Bean,Mr Bean - Clementi Mall,"[""Snack"", ""Dessert"", ""Breakfast & Brunch"", ""Beverages"", ""Healthy""]",1.3151107,103.76468247142856,https://d1sag4ddilekf6.cloudfront.net/compressed/merchants/SGDD08420/hero/26c6f852d4934bf296328b7aa61dd72e_1602235016921837489.jpeg,4.4,"[1.3151107, 103.76468247142856]",3,5
5198,Sunset Railway Cafe,Sunset Railway Cafe - Clementi Arcade,"[""Local"", ""Noodles"", ""Asian""]",1.3236611,103.7675756,https://d1sag4ddilekf6.cloudfront.net/compressed/merchants/4-CYLXGENWGVECA6/hero/upload-photo-Hero_Photo_53eff6b5279b473582e41163da1d656f_1557312198835047557.jpeg,4.5,"[1.3236611, 103.7675756]",3,5
5206,iTEA,iTEA - Clementi,"[""Bubble Tea"", ""Beverages"", ""Dessert"", ""Tea""]",1.3146642000000002,103.7645633,https://d1sag4ddilekf6.cloudfront.net/compressed/merchants/SGDD05913/hero/6462b5131aff46d8a017c340d164bad1_1592877037944690321.jpeg,4.4,"[1.3146642000000002, 103.7645633]",3,5
5207,Springleaf Prata Place,Springleaf Prata Place - Sunset Way,"[""Indian"", ""Vegetarian"", ""Breakfast & Brunch"", ""Halal"", ""Vegan""]",1.3220046708899091,103.7701080128086,https://d1sag4ddilekf6.cloudfront.net/compressed/merchants/SGDD07215/hero/e0d5d10c5c544ee69fd55825d4650abf_1573400966005572550.png,4.1,"[1.3220046708899091, 103.7701080128086]",3,5
5209,Jin Shi Roasted Delight,Jin Shi Roasted Delight - Clementi Meadows,"[""Chicken"", ""Chinese""]",1.320926663,103.7672679,https://d1sag4ddilekf6.cloudfront.net/compressed/merchants/4-C2LCKFLGEKVHSA/hero/a7429c8f0f6b4ca3add94905ad9d016d_1621221003747295251.jpeg,5.0,"[1.320926663, 103.7672679]",3,5
5215,Baker And Cook,Baker And Cook - Eng Kong Park,"[""Dessert"", ""Bakery"", ""Cake"", ""Western""]",1.3364747,103.7681021,https://d1sag4ddilekf6.cloudfront.net/compressed/merchants/SGDD10711/hero/baker__cook.PNG,4.5,"[1.3364747, 103.7681021]",3,5
5216,Yassin Kampung Seafood,Yassin Kampung Seafood - Clementi,"[""Halal"", ""Chinese"", ""Seafood"", ""Chicken"", ""Islandwide Delivery""]",1.3218253850936887,103.7698717,https://d1sag4ddilekf6.cloudfront.net/compressed/merchants/SGDD05716/hero/f3bc7411c3854b429eda67301ba383ca_1594976882237471752.jpeg,4.1,"[1.3218253850936887, 103.7698717]",3,5
5217,Starbucks,Starbucks - Clementi Mall,"[""Western"", ""Sandwiches"", ""Dessert"", ""Coffee"", ""Tea""]",1.3151738999999998,103.7646803,https://d1sag4ddilekf6.cloudfront.net/compressed/merchants/4-CYXJRREKV8M2GX/hero/43dfe13c1c1e4997b4984787c9507b63_1618365249791655339.jpeg,4.5,"[1.3151738999999998, 103.7646803]",3,5
5223,Koo Kee Yong Tow Foo Mee,Koo Kee Yong Tow Foo Mee - Clementi Ave 3,"[""Asian"", ""Noodles"", ""Chinese"", ""Local""]",1.3131875565217392,103.7657064,https://d1sag4ddilekf6.cloudfront.net/compressed/merchants/4-CYLBVA2DJF2KN2/hero/upload-photo-Hero_Photo_1f3ef86adfe64ba2828768aaa5b5baf0_1557480957182023029.jpeg,4.3,"[1.3131875565217392, 103.7657064]",3,5
5224,Lai Kee Dim Sum,Lai Kee Dim Sum - Clementi Street 12,"[""Chinese"", ""Dim Sum""]",1.3222308,103.76996288602577,https://d1sag4ddilekf6.cloudfront.net/compressed/merchants/SGDD08300/hero/LeeKeeDimSum_Hero_16x9.jpg,4.2,"[1.3222308, 103.76996288602577]",3,5
5230,Hundred Acre Creamery,Hundred Acre Creamery - Sunset Way Residence,"[""Dessert"", ""Ice Cream""]",1.322332,103.770573,https://d1sag4ddilekf6.cloudfront.net/compressed/merchants/4-C2TZLUTARRLBG6/hero/1611a90370d0456ebd2c171a20ce05a2_1621697377524495994.jpeg,,"[1.322332, 103.770573]",3,5
5232,Tian Seng BBQ Seafood,Tian Seng BBQ Seafood - Clementi Ave 4,"[""BBQ"", ""Chinese"", ""Seafood""]",1.320926663,103.7672679,https://d1sag4ddilekf6.cloudfront.net/compressed/merchants/4-C2K3TK5DNZMUG2/hero/56d945491915456596a1902d035df862_1613982763734800962.jpg,4.2,"[1.320926663, 103.7672679]",3,5
5237,Fusion Express,Fusion Express - Clementi,"[""Western"", ""Pasta"", ""Seafood""]",1.3127608,103.7651849,https://d1sag4ddilekf6.cloudfront.net/compressed/merchants/SGDD06589/hero/8b7a160d5bbe43379d5685fe0f8453ca_1568796273297475278.jpeg,4.1,"[1.3127608, 103.7651849]",3,5
5249,32 Roasted Delights,32 Roasted Delights - I.Biz Centre,"[""Asian"", ""Local"", ""Noodles"", ""Singaporean""]",1.33334526360173,103.758898987574,https://d1sag4ddilekf6.cloudfront.net/compressed/merchants/4-C2TYRFMCT3TXAX/hero/b7cabf3fb327452d83a363ed9170c389_1621571563035917539.jpg,,"[1.33334526360173, 103.758898987574]",3,5
5252,Seafood Park,Seafood Park - Clementi Street 12,"[""Local"", ""Seafood""]",1.3224144,103.7699569,https://d1sag4ddilekf6.cloudfront.net/compressed/merchants/4-CYVKTCEDGFTZVJ/hero/2fb789e8d5f84f429bab7fd38e732f57_1568791140430790395.jpeg,4.3,"[1.3224144, 103.7699569]",3,5
5265,Kimly Seafood,Kimly Seafood - 345 Clementi,"[""Seafood"", ""Chinese"", ""Noodles"", ""Chicken""]",1.3176223,103.76874127251614,https://d1sag4ddilekf6.cloudfront.net/compressed/merchants/SGDD01660/hero/KimlySeafood_Hero_16x9.jpg,4.3,"[1.3176223, 103.76874127251614]",3,5
5268,Liho Tea,LiHO Tea - The Clementi Mall,"[""Same Prices In-Store"", ""Beverages"", ""Local"", ""Bubble Tea""]",1.3151480795880726,103.7646617,https://d1sag4ddilekf6.cloudfront.net/compressed/merchants/4-CZCBBCDJMA6WRX/hero/ca585be87a524012bd9e2cdcc74ec6a4_1621401598409788665.jpeg,4.5,"[1.3151480795880726, 103.7646617]",3,5
5270,Heng Korean Food,Heng Korean Food - Ngee Ann Polytechnic,"[""Chinese"", ""Halal"", ""Asian""]",1.334541175,103.77544132383352,https://d1sag4ddilekf6.cloudfront.net/compressed/merchants/SGDD11570/hero/Cover.PNG,4.4,"[1.334541175, 103.77544132383352]",3,5
5275,Bootstrap Beverages,Bootstrap Beverages - Link @ 896,"[""Beverages"", ""Coffee & Tea"", ""Cold Brew"", ""Convenience""]",1.336233,103.783672,https://d1sag4ddilekf6.cloudfront.net/compressed/merchants/4-C2MTVEVTGU4DPA/hero/484ef704e81848559ed850a01db7767d_1617118697325765720.png,5.0,"[1.336233, 103.783672]",3,5
5279,Badaling,Badaling - Clementi Ave 5,"[""Local"", ""Beverages"", ""Alcohol""]",1.3154028007791256,103.7669234,https://d1sag4ddilekf6.cloudfront.net/compressed/merchants/4-CZEXLT3CA6M2JJ/hero/6cf9dd05d0274e2287f74d85060fa09e_1589454325517866468.jpg,4.9,"[1.3154028007791256, 103.7669234]",3,5
5282,The Coffee Bean & Tea Leaf,The Coffee Bean & Tea Leaf - Ngee Ann Polytechnic,"[""Beverages"", ""Pasta"", ""Dessert"", ""Snack"", ""Halal""]",1.3329782197132751,103.7745679984017,https://d1sag4ddilekf6.cloudfront.net/compressed/merchants/4-CYTKLXJGCAJTLE/hero/9258b6cb2175409fb745e69b8be51834_1620718775367168124.jpeg,3.9,"[1.3329782197132751, 103.7745679984017]",3,5
5288,Banyan Ayam Penyet,Banyan Ayam Penyet - Ngee Ann Polytechnic,"[""Local"", ""Asian"", ""Halal""]",1.3345339,103.77554920734494,https://d1sag4ddilekf6.cloudfront.net/compressed/merchants/4-CZDVCE6EGRMDGX/hero/e312e3eeee0c4e2daf897104ef780711_1587211387838374872.jpg,4.2,"[1.3345339, 103.77554920734494]",3,5
5371,Sunset Railway Cafe,Sunset Railway Cafe - Maplewoods Condominium,"[""Local"", ""Western""]",1.333466,103.78433,https://d1sag4ddilekf6.cloudfront.net/compressed/merchants/4-CYLXGELDGY2DA2/hero/upload-photo-Hero_Photo_72d38867b3be4ebaa570568314b100a3_1557312330352274137.jpeg,,"[1.333466, 103.78433]",3,5
5640,El Carbon,El Carbon - 431 Clementi,"[""Western"", ""Pasta"", ""Chicken"", ""Seafood"", ""Steak""]",1.3135247898310731,103.76322892017986,https://d1sag4ddilekf6.cloudfront.net/compressed/merchants/SGDD11807/hero/d1174290d62643118b7c6805dc3f1c36_1622434038681905640.jpeg,4.4,"[1.3135247898310731, 103.76322892017986]",3,5
5645,Subway,Subway - Clementi Mall,"[""Healthy"", ""Sandwiches"", ""Fast Food"", ""Halal"", ""Western""]",1.3153207096637658,103.7644912916344,https://d1sag4ddilekf6.cloudfront.net/compressed/merchants/4-CYN2GYVJGBKHRN/hero/cb98d008337548d9914975e7f5033eec_1576205915201519445.png,4.4,"[1.3153207096637658, 103.7644912916344]",3,5
5650,Crave,Crave - Clementi Mall,"[""Chicken"", ""Halal"", ""Local""]",1.3151774491666668,103.76466204545454,https://d1sag4ddilekf6.cloudfront.net/compressed/merchants/4-C2AVN6WZLNDJTT/hero/493317171230446e8f760f13f32f44c1_1601268021830149266.jpeg,4.4,"[1.3151774491666668, 103.76466204545454]",3,5
5654,Toast Box,Toast Box - Clementi Mall,"[""Beverages"", ""Local"", ""Coffee"", ""Sandwiches"", ""Tea""]",1.3150054,103.76476129090908,https://d1sag4ddilekf6.cloudfront.net/compressed/merchants/SGDD11234/hero/41f84db41ee546f6a4f5c0f35a657f98_1616571666935966044.jpeg,4.2,"[1.3150054, 103.76476129090908]",3,5
5666,Clementi Ave 4 Foodloft,Clementi Ave 4 Foodloft - Mix & Match,"[""Local"", ""Western""]",1.321106,103.767177,https://d1sag4ddilekf6.cloudfront.net/compressed/merchants/4-C2EVGU2DE7D3NJ/hero/3efbbf191d0042db900033cab7cd63e3_1609234601122853349.jpeg,5.0,"[1.321106, 103.767177]",3,5
5675,Mixed Veg. Rice,Kimly Mixed Rice - Clementi Avenue 5,"[""Local"", ""Chinese""]",1.3176005,103.7687178,https://d1sag4ddilekf6.cloudfront.net/compressed/merchants/4-CZD2C6JCCFJ1E2/hero/5104ce662af2476a9eb342f81ee90fe8_1593484896496462816.jpeg,3.9,"[1.3176005, 103.7687178]",3,5
5686,Buttercake N Cream,Buttercake N Cream - Sunset Way,"[""Western"", ""Islandwide Delivery""]",1.3218452,103.7698162,https://d1sag4ddilekf6.cloudfront.net/compressed/merchants/SGDD07889/hero/74a04ca5278d426292696e02d02b26fc_1558405682494694579.jpeg,4.4,"[1.3218452, 103.7698162]",3,5
5691,Mentai Sens,Mentai Sens - Sunset Way Estate,"[""Japanese""]",1.32227,103.76993,https://d1sag4ddilekf6.cloudfront.net/compressed/merchants/4-C2NFLUVFVRLUGT/hero/c2e476bf44d84795b57ed93834501f42_1618554646042412080.jpg,5.0,"[1.32227, 103.76993]",3,5
5730,Hua Xin Mala Xiang Guo,Hua Xin Mala Xiang Guo - Ngee Ann Polytechnic (Blk 51),"[""Asian"", ""Chinese""]",1.3322828,103.77442709961686,https://d1sag4ddilekf6.cloudfront.net/compressed/merchants/4-CYUZDAWDG64TEE/hero/18a72a72b5754de3939dd31790a9d9e9_1566276290292072875.jpeg,3.7,"[1.3322828, 103.77442709961686]",3,5
8385,We Are Sultans,We Are Sultans - Link@896,"[""Mart"", ""Health & Wellness"", ""Wellness"", ""Personal Care"", ""Gifts""]",1.3363495,103.7835815,https://d1sag4ddilekf6.cloudfront.net/compressed/merchants/4-C2LXMBVDVADHV6/hero/2fadc4d6439342beaf5bbf41e12c4953_1615532585715826901.png,,"[1.3363495, 103.7835815]",3,5
8388,Old Chang Kee,Old Chang Kee - The Clementi Mall,"[""Halal"", ""Snack"", ""Local"", ""Finger Food"", ""Asian""]",1.3148962,103.7644231,https://d1sag4ddilekf6.cloudfront.net/compressed/merchants/4-C2KYNXCCVXJAV6/hero/c8f0fbe6a6d241d3825334facb80e02b_1613616790309397548.jpeg,4.5,"[1.3148962, 103.7644231]",3,5
8488,Koo Kee Yong Tow Foo Mee,Koo Kee Yong Tow Foo Mee - Clementi Street 12,"[""Asian"", ""Noodles"", ""Chinese"", ""Local""]",1.3222407333333337,103.7699600508916,https://d1sag4ddilekf6.cloudfront.net/compressed/merchants/4-CYNBCTAXVYNKEA/hero/5c6a8572882a4270bc21b8b018bac77b_1558363922864271646.jpeg,4.2,"[1.3222407333333337, 103.7699600508916]",3,5
8556,Kong Cafe,Kong Cafe - Sime Darby Centre,"[""Coffee"", ""Pizza"", ""Korean"", ""Chicken"", ""Islandwide Delivery""]",1.336401840155867,103.7833991,https://d1sag4ddilekf6.cloudfront.net/compressed/merchants/4-CY62JK6VEFVKNN/hero/74d84a965d9b45af87aada8e7e0615e5_1588650856951674459.jpeg,4.3,"[1.336401840155867, 103.7833991]",3,5
8843,Mixed Veg. Rice,Kimly Mixed Rice - SIM,"[""Local"", ""Chinese""]",1.329554,103.776169,https://d1sag4ddilekf6.cloudfront.net/compressed/merchants/4-CZD2C6DZUBWKCA/hero/bed03cc685d24c0fa7a2b5b10e82617d_1593485767703113808.jpeg,,"[1.329554, 103.776169]",3,5
9133,La Pizzaiola,La Pizzaiola - Dunearn Road,"[""Pizza"", ""Italian""]",1.3363983333333334,103.7833625,https://d1sag4ddilekf6.cloudfront.net/compressed/merchants/4-CZCAA6CXMACZCE/hero/6a109b29ba0e44aea73f22f65af9ff40_1593999268715237925.jpeg,4.3,"[1.3363983333333334, 103.7833625]",3,5
9249,Burger King,Burger King - Dunearn,"[""American"", ""Burger"", ""Halal""]",1.3364754319190977,103.78332972286846,https://d1sag4ddilekf6.cloudfront.net/compressed/merchants/4-CY3TEEUKNBBTG2/hero/e7b3f3b27cbf4d4e8912fd930a9d5849_1622520701928986487.jpeg,4.0,"[1.3364754319190977, 103.78332972286846]",3,5
10501,Hua Zai Roasted Duck,Hua Zai Roasted Duck - 442 Clementi Ave 3,"[""Local"", ""Chinese"", ""Noodles"", ""Roasted duck"", ""Assorted Meat""]",1.3136239440998472,103.7643105,https://d1sag4ddilekf6.cloudfront.net/compressed/merchants/4-CZEBLX2HWEJUTE/hero/81d8339b1c244cf3aa9bd1b4982468b2_1619750653993093144.jpg,3.8,"[1.3136239440998472, 103.7643105]",3,5
11097,Mixed Veg. Rice,Kimly Mixed Rice - Clementi Avenue 5,"[""Local"", ""Chinese""]",1.314695,103.7669425,https://d1sag4ddilekf6.cloudfront.net/compressed/merchants/4-CZD2C6L3ALBFN6/hero/2ff1aaaf1fa847b799def97dc9e947df_1593484878368413131.jpeg,4.4,"[1.314695, 103.7669425]",3,5
11312,Cheers @ Esso,Cheers @ Esso - Yarwood,"[""Mart""]",1.336049322,103.7837992,https://d1sag4ddilekf6.cloudfront.net/compressed/merchants/4-C2LCGNTTJUXHHE/hero/44cf56bd76b54cc9937ec78bb2c56f19_1621875391128413067.jpg,4.0,"[1.336049322, 103.7837992]",3,5
11773,Subway,Subway - Ngee Ann Polytechnic,"[""Healthy"", ""Sandwiches"", ""Fast Food"", ""Halal"", ""Western""]",1.332166091001469,103.7745127,https://d1sag4ddilekf6.cloudfront.net/compressed/merchants/4-CYTTJJ23LKC1T6/hero/49da9f65140b497eb24d1759245eacd6_1575605163795668925.png,4.0,"[1.332166091001469, 103.7745127]",3,5
12067,Starbucks,Starbucks - Singapore Institute of Management,"[""Western"", ""Sandwiches"", ""Dessert"", ""Coffee"", ""Tea""]",1.3287470250000002,103.77587166666666,https://d1sag4ddilekf6.cloudfront.net/compressed/merchants/4-CYXJRRLBAJTCCN/hero/c50ff6ac23e04405a1fa26b04996d27f_1618364752208079343.jpeg,4.4,"[1.3287470250000002, 103.77587166666666]",3,5
16111,Ibrahim Stall,Ibrahim Stall - Ayer Rajah Food Centre [Stall 74],"[""Asian"", ""Indian"", ""Noodles""]",1.3116210966467958,103.7597014,https://d1sag4ddilekf6.cloudfront.net/compressed/merchants/4-CZBWAFT1KFKCRE/hero/1bfcec7d9bd8404fa64a90a59131cd88_1583301621878050537.jpg,4.7,"[1.3116210966467958, 103.7597014]",3,5
